ean_hotel_id,name,address1,city,state_province,postal_code,latitude,longitude,star_rating,high_rate,low_rate
269955,Hilton Garden Inn Albany/SUNY Area,1389 Washington Ave,Albany,NY,12206,42.68751,-73.81643,3,154.0272,124.0216
113431,Courtyard by Marriott Albany Thruway,1455 Washington Avenue,Albany,NY,12206,42.68971,-73.82021,3,179.01,134
108151,Radisson Hotel Albany,205 Wolf Rd,Albany,NY,12205,42.7241,-73.79822,3,134.17,84.16
254756,Hilton Garden Inn Albany Medical Center,62 New Scotland Ave,Albany,NY,12208,42.65157,-73.77638,3,308.2807,228.4597
198232,CrestHill Suites SUNY University Albany,1415 Washington Avenue,Albany,NY,12206,42.68873,-73.81854,3,169.39,89.39
125200,The Desmond Hotel Albany,660 Albany Shaker Rd,Albany,NY,12211,42.72874,-73.79807,3.5,189.0266,153.0644
109728,Ramada Plaza Albany,3 Watervliet Avenue Ext,Albany,NY,12206,42.68031,-73.78444,3,158.6321,89.036
235037,Hampton Inn & Suites Albany-Downtown,25 Chapel St,Albany,NY,12210,42.65334,-73.75142,2.5,225.47,224.47
106464,Albany Marriott,189 Wolf Rd,Albany,NY,12205,42.72111,-73.80036,3.5,158.8856,128.9077
106922,Best Western Sovereign Hotel - Albany,1228 Western Ave,Albany,NY,12203,42.67807,-73.82819,3,139.0244,78.3255
111647,Express Inn & Suites,16 Wolf Rd,Albany,NY,12205,42.70959,-73.82096,2.5,130.34,120.34
113084,Hilton Albany,40 Lodge Street,Albany,NY,12207,42.65082,-73.75377,3.5,294.32,199.32
118602,Holiday Inn Express Albany Downtown,300 Broadway,Albany,NY,12207,42.6456,-73.74992,2.5,135.0627,100.0442
437296,Residence Inn Albany Washington Avenue,124 Washington Avenue Extension,Albany,NY,12203,42.6931,-73.84938,3,189.16,179.16
122051,Courtyard by Marriott Albany Airport,168 Wolf Rd,Albany,NY,12205,42.72231,-73.80328,3,174,119.01
252452,"Cocca's Inn & Suites Wolf Rd, Albany Airport",2 Wolf Road,Albany,NY,12205,42.70898,-73.82207,2,132.65,60.45
134751,Days Inn and Suites Albany,1606 Central Avenue,Albany,NY,12205,42.7184,-73.83377,2,190.45,70.45
117936,Howard Johnson Inn - Albany,1614 Central Ave,Albany,NY,12205,42.71913,-73.83459,1.5,70.24,51.24
119964,Hampton Inn Albany-Western Ave/University Area,1442 Western Ave,Albany,NY,12203,42.68031,-73.8353,2.5,144.41,124.41
153579,TownePlace Suites by Marriott Albany University Area,1379 Washington Ave,Albany,NY,12206,42.68674,-73.8151,2.5,179.08,119.07
324138,Travelodge Inn And Suites Albany,42 Wolf Road,Albany,NY,12205,42.7119,-73.81709,2.5,74.43,54.43
127178,Red Roof Inn Albany Airport,188 Wolf Rd,Albany,NY,12205,42.72398,-73.80098,2,69.99,65.22
205279,Best Western Albany Airport Inn,200 Wolf Rd,Albany,NY,12205,42.72184,-73.80241,3,115.34,86.34
111978,Hampton Inn Albany-Wolf Road (Airport),10 Ulenski Dr,Albany,NY,12205,42.72441,-73.79661,2.5,139,84.1151
250526,Days Inn Albany SUNY,1230 Western Avenue,Albany,NY,12203,42.67816,-73.82843,2,180.22,76.63
268158,Homewood Suites by Hilton Albany,216 Wolf Rd,Albany,NY,12205,42.72519,-73.79819,3,194.3,179.3
130527,Extended Stay America - Albany - SUNY,1395 Washington Ave,Albany,NY,12206,42.68799,-73.81733,2.5,95.0707,90.0567
261882,SpringHill Suites by Marriott Albany-Colonie,8 California Ave,Albany,NY,12205,42.70373,-73.81575,3,189.3,161.3
127566,Quality Inn Central,1632 Central Ave,Albany,NY,12205,42.71977,-73.83534,2.5,99.38,89
125498,Econo Lodge Colonie Center Mall,1630 Central Ave,Albany,NY,12205,42.7195,-73.83502,2,65.9995,60.0006
275981,TownePlace Suites by Marriott Albany Downtown/Medical Center,22 Holland Ave,Albany,NY,12209,42.64651,-73.77209,2.5,139.06,129.06
150421,Fairfield Inn by Marriott Albany University Area,1383 Washington Avenue,Albany,NY,12206,42.68676,-73.81511,2.5,149.33,139.33
239994,Motel 6 - Albany Airport,1600 Central Ave,Albany,NY,12205,42.71784,-73.83317,1.5,50.47,45.47
458738,"Motel 6 Albany, New York",100 Watervliet Ave,Albany,NY,12206,42.67972,-73.78295,2,58.99,49.99
538343,Home2 Suites by Hilton Albany Airport/Wolf Rd,10 Metro Park Road,Albany,NY,12205,42.71852,-73.80022,2.5,164.42,123.42
467917,Staybridge Suites Albany Wolf Rd-Colonie Center,39 Wolf Rd,Albany,NY,12205,42.71138,-73.81812,3,159.085,119.0063
480979,Fairfield Inn & Suites by Marriott Albany Downtown,74 State Street,Albany,NY,12207,42.64955,-73.75223,2.5,149.4,139.4
539733,Renaissance Albany Hotel,144 State Street,Albany,NY,12207,42.65077,-73.75591,3.5,329.0349,229.0411
573120,Red Carpet Inn & Suites - Albany Airport,1579 Central Avenue,Albany,NY,12205,42.71668,-73.83046,2.5,62.9948,60.0006
255460,Gallets House B&B,1759 Four Mile Rd,Allegany,NY,14706,42.07667,-78.49657,2.5,140.3,139.3
449674,Tailwater Lodge,52 Pulaski St,Altmar,NY,13302,43.51379,-76.00504,3,129.0155,129
231177,Homewood Suites by Hilton Buffalo/Amherst,1138 Millersport Hwy,Amherst,NY,14226,42.9824,-78.79638,3,239.1,177.85
116591,DoubleTree by Hilton Hotel Buffalo - Amherst,10 Flint Rd,Amherst,NY,14226,42.99028,-78.79224,3.5,160.45,159.45
203763,Comfort Inn University,1 Flint Rd,Amherst,NY,14226,42.99059,-78.79215,2.5,87.25,68.04
127175,Red Roof Inn PLUS+ University at Buffalo - Amherst,42 Flint Rd,Amherst,NY,14226,42.98985,-78.79244,2.5,80.99,79.99
269877,Residence Inn Buffalo Amherst,100 Maple Rd,Amherst,NY,14221,42.99139,-78.78401,3,140.035,139.035
106439,Buffalo Marriott Niagara,1340 Millersport Hwy,Amherst,NY,14221,42.98891,-78.79161,3.5,209.09,127.07
136100,Extended Stay America - Buffalo - Amherst,125 Inn Keepers Ln,Amherst,NY,14228,43.00567,-78.81827,2.5,75.67,65.17
436980,Staybridge Suites Buffalo-Amherst,1290 Sweethome Rd,Amherst,NY,14228,42.99702,-78.7998,3,290.45,136.45
276923,Courtyard by Marriott Buffalo Amherst/University,4100 Sheridan Dr,Amherst,NY,14221,42.97846,-78.7808,3,154.32,129.32
143109,Sleep Inn,75 Inn Keepers Ln,Amherst,NY,14228,43.00635,-78.81913,2,85.5604,72.0492
458792,Motel 6 Buffalo - Amherst,4400 Maple Rd,Amherst,NY,14226,42.99072,-78.80194,2,55.047,52.0082
152226,Rodeway Inn & Suites,1951 Niagara Falls Blvd,Amherst,NY,14228,43.00753,-78.82217,1.5,58.81,46.02
364655,University Manor Inn,3612 Main Street,Amherst,NY,14226,42.95907,-78.8151,2,109.99,79.99
498900,Hyatt Place Buffalo/Amherst,5020 Main Street,Amherst,NY,14226,42.95934,-78.76993,3,224.17,199.67
312059,Candlewood Suites Buffalo - Amherst,20 Flint Road,Amherst,NY,14226,42.99032,-78.79228,2.5,150.37,94.37
208593,Super 8 - Amsterdam,5502 Rte 30 South I 90 Exit 27,Amsterdam,NY,12010,42.92563,-74.20226,2,71.9986,67.0047
562127,Knights Inn Amsterdam,Route 5S,Amsterdam,NY,12010,42.92894,-74.2007,2.5,99.0099,59.006
433086,Comfort Inn,7662 State Rte 434,Apalachin,NY,13732,42.0611,-76.1436,2.5,81.42,80.42
233290,Quality Inn Binghamton West,7666 Route 434,Apalachin,NY,13732,42.05989,-76.14391,2.5,71.4,70.4
226561,Ardsley Acres Hotel Westchester,560 Saw Mill River Rd,Ardsley,NY,10502,41.00869,-73.85151,2,101.35,100.35
106923,La Quinta inn & Suites Armonk Westchester County Airport,94 Business Park Dr,Armonk,NY,10504,41.11965,-73.70825,2.5,100.45,95.45
252608,Fairfield Inn by Marriott New York LaGuardia Airport/Astoria,45-20 Astoria Blvd.,Astoria,NY,11103,40.76791,-73.90563,2.5,169.35,159.35
224415,"Super 8 Long Island City, LGA Hotel",31-62 14th Street,Astoria,NY,11106,40.76679,-73.93348,2,211.0229,102.0041
515540,Stewart House at the Athens Hotel,2 North Water Street,Athens,NY,12015,42.25984,-73.808,3,349.0528,249.0377
410019,Hilton Garden Inn Auburn,74 State St,Auburn,NY,13021,42.93311,-76.56947,3,139.46,109.46
124395,Days Inn Auburn Fingerlakes,37 William St,Auburn,NY,13021,42.92832,-76.56631,2,74.33,70.33
201347,Auburn Inn,19 McMaster St,Auburn,NY,13021,42.93204,-76.57378,2,75.48,65.48
107975,Holiday Inn Auburn-Finger Lakes Region,75 North St,Auburn,NY,13021,42.93461,-76.56636,3,174.45,143.45
538682,Skaneateles Suites,4114 E Genesee Street,Auburn,NY,13152,42.94288,-76.46947,2.5,225.08,150.06
634158,Inn at the Finger Lakes,12 Seminary Ave,Auburn,NY,13021,42.93424,-76.56229,2.5,109.41,71.41
259087,The Red Mill Inn,4 Syracuse St,Baldwinsville,NY,13027,43.15613,-76.33204,2.5,139.18,59.19
195601,Microtel Inn & Suites by Wyndham Baldwinsville/Syracuse,131 Downer St,Baldwinsville,NY,13027,43.15128,-76.34533,2,80.44,59.49
484688,Baldwinsville Bed and Breakfast,70 Oswego Street,Baldwinsville,NY,13027,43.16099,-76.3338,3.5,120.17,119.17
276724,Roosevelt Inn And Suites,2961 State Route 9,Ballston Spa,NY,12020,43.02713,-73.79237,2.5,389.22,327.55
538573,Catskill Mountains Resort,211 Mail Rd,Barryville,NY,12719,41.50764,-74.92298,2,223.4838,170.6404
218706,Hampton Inn Batavia,4360 Commerce Dr,Batavia,NY,14020,43.02006,-78.19425,2.5,129.38,89.38
177921,Best Western Crown Inn & Suites,8210 Park Rd,Batavia,NY,14020,43.01656,-78.19554,2.5,79.99,62.99
411011,Holiday Inn Express Hotel & Suites Batavia - Darien Lake,4356 Commerce Dr,Batavia,NY,14020,43.01978,-78.19434,2.5,114.47,94.47
137866,Comfort Inn,4371 Federal Dr,Batavia,NY,14020,43.021,-78.19271,2.5,74.31,74
229344,La Quinta Inn & Suites Batavia,8200 Park Rd,Batavia,NY,14020,43.01609,-78.19222,2.5,89.38,79.38
149424,Quality Inn & Suites Palm Island Indoor Waterpark,8250 Park Rd,Batavia,NY,14020,43.01639,-78.1941,3,74.31,73.31
209876,Red Roof Inn Batavia,8204 Park Rd,Batavia,NY,14020,43.01609,-78.19231,2,64.48,63.48
201529,Super 8 Batavia E Of Darien Lake Theme Park,200a Oak St,Batavia,NY,14020,43.01459,-78.19207,2,107.99,57.99
128681,Days Inn Batavia,200 Oak St,Batavia,NY,14020,43.01458,-78.19207,2,90.15,51.16
260324,Microtel Inn & Suites by Wyndham Bath,370 W Morris Street,Bath,NY,14810,42.3396,-77.33433,2.5,77.15,57
201355,Super 8 Bath Hammondsport Area,333 W Morris Street,Bath,NY,14810,42.33619,-77.32942,2,62,52
109196,Days Inn Bath Hammondsport,330 W Morris St,Bath,NY,14810,42.33616,-77.32937,2,65.41,55.41
224895,Budget Inn Bath,332 W. Morris Street,Bath,NY,14810,42.33657,-77.33035,2,55,52
427232,Bay Shore Inn,300 Bay Shore Rd,Bay Shore,NY,11706,40.73222,-73.27663,1.5,98.7217,97.7217
207012,Travelodge Bay Shore Long Island,501 E Main Street,Bay Shore,NY,11706,40.72732,-73.23138,1.5,180.0228,106.268
220355,Adria Hotel And Conference Center,221-17 Northern Blvd,Bayside,NY,11361,40.76179,-73.75974,3,180.15,160
130161,Anchor Inn,215-34 Northern Blvd,Bayside,NY,11361,40.76076,-73.76612,2,185.53,159.03
115172,Best Western Queens Gold Coast,220-33 Northern Blvd,Bayside,NY,11361,40.76166,-73.76059,2.5,165.4,155.4
566299,The Roundhouse,2 E Main St,Beacon,NY,12508,41.50252,-73.96249,3.5,190.44,189.44
350825,Bellerose Inn,249-05 Jericho Turnpike,Bellerose,NY,11426,40.72656,-73.71558,2,100,99
343306,SpringHill Suites by Marriott Long Island Brookhaven,2 Sawgrass Dr,Bellport,NY,11713,40.80858,-72.94766,3,139.0174,119.0164
669535,Maple Springs Lake Side Inn,4696 Chautauqua Avenue,Bemus Point,NY,14712,42.19313,-79.41793,3,150.48,149.48
261411,Extended Stay America - Long Island - Bethpage,905 S Oyster Bay Rd,Bethpage,NY,11714,40.76001,-73.49987,2.5,115.46,105.46
433987,Motel 6 Binghamton,1012 Upper Front Street,Binghamton,NY,13905,42.14234,-75.90366,2,65.99,55.99
107922,Holiday Inn Binghamton - Downtown (Hawley St.),2-8 Hawley Street,Binghamton,NY,13901,42.09747,-75.91485,3,126.4,97.4
341158,DoubleTree by Hilton Hotel Binghamton,225 Water St,Binghamton,NY,13901,42.10091,-75.91465,3,159.38,105.38
169615,Fairfield Inn by Marriott Binghamton,864 Upper Front St,Binghamton,NY,13905,42.13034,-75.90583,2.5,110.0159,109.0159
112292,Comfort Inn Binghamton,1000 Upper Front St,Binghamton,NY,13905,42.14164,-75.90375,2.5,124.99,119.99
109003,Econo Lodge Inn And Suites,690 Old Front St,Binghamton,NY,13905,42.12534,-75.9092,2,71.34,70.34
201389,Red Roof Inn Binghamton North,650 Old Front St,Binghamton,NY,13905,42.12453,-75.90976,2,69.99,65.6
486055,Park House Bed and Breakfast,85 Park Street,Binghamton,NY,13905,42.10901,-75.94552,3,110.44,95.44
619673,Microtel Inn & Suites By Wyndham Binghamton,400 Prospect Street,Binghamton,NY,13905,42.1189,-75.94541,2.5,169.33,122.4
132213,Econo Lodge South,4344 Milestrip Rd.,Blasdell,NY,14219,42.78987,-78.81782,2,66,54.4423
242093,La Quinta Inn & Suites Islip-MacArthur Airport,10 Aero Rd,Bohemia,NY,11716,40.77988,-73.09552,2.5,239.16,145.01
479839,Lakeland Inn,1630 Lakeland Avenue,Bohemia,NY,11716,40.78494,-73.11376,2,80,73.19
685044,Highlands Castle,19 Skyline Drive,Bolton Landing,NY,12814,43.56455,-73.66439,NULL,0,0
127173,Red Roof Inn Buffalo - Niagara Airport,146 Maple Drive,Bowmansville,NY,14026,42.94902,-78.69399,2,69.99,60.43
150010,Days Inn Brewerton/Syracuse/Airport,5552 Bartel Rd,Brewerton,NY,13029,43.23269,-76.1336,2.5,127.11,65.46
482259,Topping Rose House,One Bridgehampton - Sag Harbor Turnpike,Bridgehampton,NY,11932,40.9378,-72.30069,4.5,995.39,295.39
448735,Playland Motel,97-20 Rockaway Beach Blvd,Broad Channel,NY,11693,40.5874,-73.81247,3,249.46,129.46
173729,Dollingers Inn & Suites,4908 Lake Rd S,Brockport,NY,14420,43.19443,-77.94395,2.5,140.33,85.33
422144,"Hampton Inn Brockport, NY",4873 Lake Rd S,Brockport,NY,14420,43.19433,-77.94397,2.5,129.43,107.43
492714,Econo Lodge Brockport,6575 4th Section Rd,Brockport,NY,14420,43.19835,-77.94608,2,70.48,65.48
438964,Opera House Hotel,436 East 149th Street,Bronx,NY,10455,40.81531,-73.91589,3,209.47,169.47
428137,Rodeway Inn Bronx Zoo,3070-72 Webster Ave,Bronx,NY,10467,40.87052,-73.87789,2,171.34,170.34
169333,Ramada Bronx,1000 Baychester Ave,Bronx,NY,10475,40.87979,-73.83187,3,241.1339,140.2387
269318,Days Inn Bronx Near Stadium,997 Brook Ave,Bronx,NY,10451,40.82687,-73.91176,2,184.0327,126.6667
217343,Howard Johnson Express Inn Bronx,1922 Boston Rd,Bronx,NY,10460,40.83957,-73.88151,2,145.45,123.45
245493,Bronx Guesthouse,East 233 Street,Bronx,NY,10466,40.89192,-73.85267,2,202.3,151.725
393691,Sheridan Hotel,1440 Sheridan Expy,Bronx,NY,10459,40.83114,-73.88481,2,198.39,169.39
466093,Super 8 Bronx,1145 Southern Blvd,Bronx,NY,10459,40.8277,-73.8919,2,94.09,93.09
487266,Residence Inn New York The Bronx At Metro Center Atrium,1776 Eastchester Rd,Bronx,NY,10461,40.84958,-73.84363,3,250.12,249.12
567182,"Umbrella Hotel, An Ascend Hotel Collection Member",681 Elton Ave,Bronx,NY,10455,40.81885,-73.91467,2.5,249.38,199.38
339951,Sheraton Brooklyn New York Hotel,228 Duffield Street,Brooklyn,NY,11201,40.6916,-73.98436,4,409.1485,259.0916
348082,Best Western Plus Arena Hotel,1324 Atlantic Ave,Brooklyn,NY,11216,40.67829,-73.94857,2.5,150.24,114.25
370872,Aloft New York Brooklyn,216 Duffield St,Brooklyn,NY,11201,40.69172,-73.98435,3,509.46,249.46
272697,NU Hotel Brooklyn,85 Smith St,Brooklyn,NY,11201,40.68891,-73.98897,3.5,299.34,273.34
400022,Hotel BPM - Brooklyn New York,139 33rd street,Brooklyn,NY,11232,40.6565,-74.0035,3.5,170.19,169.19
406834,McCarren Hotel & Pool,160 N 12th St,Brooklyn,NY,11249,40.721,-73.95543,4,575.41,330.41
385544,"Union Hotel, an Ascend Hotel Collection Member",611 DeGraw St,Brooklyn,NY,11217,40.67907,-73.98322,2.5,144.36,114.36
262957,Holiday Inn Express Brooklyn,625 Union St,Brooklyn,NY,11215,40.678,-73.98453,3,139.24,99.2
253355,Hotel Le Bleu,370 Fourth Ave,Brooklyn,NY,11215,40.67304,-73.98658,3,145.4,144.99
370130,Condor Hotel,56 Franklin Ave,Brooklyn,NY,11205,40.6975,-73.95864,3.5,439.36,279.31
417594,Hotel Indigo BROOKLYN,229 Duffield St,Brooklyn,NY,11201,40.69124,-73.9844,3.5,334.05,143.6691
350857,Sleep Inn Brooklyn Downtown,134 22nd St,Brooklyn,NY,11232,40.66306,-73.99778,2,149.2,129.2
339969,La Quinta Inn & Suites Brooklyn Downtown,533 3rd Ave,Brooklyn,NY,11215,40.66882,-73.99322,2.5,189.44,169.44
403899,The Box House Hotel,77 Box Street,Brooklyn,NY,11222,40.73749,-73.95329,4,379.42,249.42
263437,Hotel Le Jolie,235 Meeker Ave,Brooklyn,NY,11211,40.71635,-73.95075,2.5,189.44,159.44
333610,Super 8 Brooklyn / Park Slope Hotel,267 3rd Ave,Brooklyn,NY,11215,40.67784,-73.98577,2,561.07,271
256012,Red Lion Inn and Suites Brooklyn,279 Butler St,Brooklyn,NY,11217,40.68133,-73.98485,3.5,329,309
123678,Best Western Gregory Hotel,8315 4th Ave,Brooklyn,NY,11209,40.62447,-74.02767,2.5,205.35,125.35
376174,Pointe Plaza Hotel,2 Franklin Ave,Brooklyn,NY,11249,40.6991,-73.95898,3,126.9366,125.9366
438068,International Students Residence,341 Broadway,Brooklyn,NY,11211,40.70784,-73.95615,1.5,69.99,40.29
388700,Comfort Inn Red Hook,17 Seabring Street,Brooklyn,NY,11231,40.68016,-74.0058,2.5,124.0796,114.095
362397,"Brooklyn Way Hotel, BW Premier Collection",764 4th Ave,Brooklyn,NY,11232,40.65996,-73.99867,2.5,180.36,162.36
360006,Fairfield Inn & Suites by Marriott New York Brooklyn,181 3rd Ave,Brooklyn,NY,11217,40.68055,-73.98393,2.5,309.2,209.01
417441,Galaxy Motel,860 Pennsylvania Avenue,Brooklyn,NY,11207,40.65677,-73.88937,2,130.0206,110.0134
218905,Days Inn Brooklyn,437 39th Street,Brooklyn,NY,11232,40.65204,-74.00517,2,229,134.1
136344,New York Marriott at the Brooklyn Bridge,333 Adams St,Brooklyn,NY,11201,40.69365,-73.9887,4,489.07,212.04
252992,Red Carpet Inn New York City,980 Wyckoff Ave,Brooklyn,NY,11237,40.69594,-73.9047,2,201.34,200.34
364363,Oasis Motel in Brooklyn,12091 Flatlands Ave,Brooklyn,NY,11207,40.65227,-73.88741,1.5,329.95,328.95
257831,Lexington Inn - Brooklyn NY,2473 Atlantic Ave,Brooklyn,NY,11207,40.67599,-73.90319,2.5,199.99,179.99
351559,Sankofa Aban Bed and Breakfast,107 Macon Street,Brooklyn,NY,11216,40.68136,-73.947,2.5,250.18,135.17
420944,Lefferts Gardens Residence Bed and Breakfast,44 Rutland Road,Brooklyn,NY,11225,40.65887,-73.95907,2.5,158.934,129.9519
404600,The Missing Lantern,1156 Dean St,Brooklyn,NY,11216,40.67694,-73.95133,2,190.44,160.44
364362,Riviera Motor Inn Brooklyn,2969 Atlantic Ave,Brooklyn,NY,11208,40.67815,-73.8842,1.5,272.5125,271.5125
276847,Brooklyn Motor Inn,140 Hamilton Ave,Brooklyn,NY,11231,40.68183,-74.00614,2,140.22,130.21
464762,Henry Norman Hotel,251 North Henry Street,Brooklyn,NY,11222,40.72795,-73.94398,3.5,300.04,299.04
448368,Hotel Lynx,1420 Atlantic Avenue,Brooklyn,NY,11216,40.67811,-73.94504,2,159.3,139.3
459006,Hampton Inn Brooklyn Downtown NY,125 Flatbush Avenue Extension,Brooklyn,NY,11201,40.69537,-73.98408,3,358.6905,298.7424
464655,Green Point YMCA,99 Meserole Avenue,Brooklyn,NY,11222,40.72695,-73.95318,2,99.9647,98.9647
242563,Comfort Inn Brooklyn City Center,599 Utica Ave,Brooklyn,NY,11203,40.65888,-73.93111,2.5,180.23,179.23
486518,Bklyn House,9 Beaver Street,Brooklyn,NY,11206,40.70083,-73.93949,2.5,200.48,199.48
548227,La Quinta Inn & Suites Brooklyn East,1412 Pitkin Ave,Brooklyn,NY,11233,40.66856,-73.92196,2.5,150.15,149.15
476903,Oyo Bed & Breakfast,1390 Bedford Avenue,Brooklyn,NY,11216,40.67571,-73.95325,2.5,175.0289,90.0167
491941,Sumner Hotel,22 Sumner Place,Brooklyn,NY,11206,40.70091,-73.94058,2,189.36,119.36
448516,Habitat 101,101 Sutton Street,Brooklyn,NY,11222,40.72651,-73.94084,3,216.02,130.02
528548,Cesar Suites at New York South,381 S 3rd St,Brooklyn,NY,11211,40.70878,-73.95231,3,1199,359.1
471886,Sleep Inn Prospect Park South,1118 36th St,Brooklyn,NY,11218,40.64419,-73.98774,3,159.898,149.9044
496013,Quality Inn,95 Chester Street,Brooklyn,NY,11212,40.6693,-73.9116,2.5,150.0172,140.0083
358519,Americas Best Value Inn,1705 Linden Boulevard,Brooklyn,NY,11212,40.65743,-73.89933,2,118.95,92.81
539305,The Brooklyn,1199 Atlantic Avenue,Brooklyn,NY,11216,40.67866,-73.95122,3.5,199.44,189.44
507616,Best Western Plus Brooklyn Bay Hotel,3003 Emmons Avenue,Brooklyn,NY,11235,40.58399,-73.9382,2.5,190.21,171.22
508516,Vacation Rental in New York,416 Van Siclen Avenue,Brooklyn,NY,11207,40.66931,-73.88946,3,230.09,190.08
532228,Holiday Inn Brooklyn Downtown,300 Schermerhorn Road,Brooklyn,NY,11217,40.68762,-73.98254,3.5,314.0428,144.0182
529152,New York City Summer Dorms,"Conolly Hall, Long Island University",Brooklyn,NY,11201,40.69192,-73.98041,2,34.92,33.92
512373,Dazzler Brooklyn,85 Flatbush Ave Extension,Brooklyn,NY,11201,40.69631,-73.98455,3.5,542.5052,230.4843
486970,Midwood Suites Brooklyn,1078 East 15 Street,Brooklyn,NY,11230,40.62329,-73.96105,3,199,109
492753,Comfort Inn Brooklyn,3218 Emmons Ave,Brooklyn,NY,11235,40.58415,-73.93244,2.5,260.0306,170.0139
556612,The William Vale Hotel,111 North 12th Street,Brooklyn,NY,11249,40.72243,-73.9573,5,659.37,299.37
545381,Sleep Inn Coney Island,2586 Stillwell Ave,Brooklyn,NY,11223,40.58456,-73.98298,2,175.37,174.37
541165,Wyndham Garden Brooklyn Sunset Park,457 39th Street,Brooklyn,NY,11232,40.65175,-74.0047,4,319.31,251.31
579402,Hipster's Cove Bed & Breakfast,1300 Sterling Place,Brooklyn,NY,11213,40.67171,-73.9355,2.5,70.16,69.16
575179,EVEN Hotel Brooklyn,46 Nevins Street,Brooklyn,NY,11217,40.68745,-73.98174,4,197.47,144.47
588558,Hilton Brooklyn New York,140 Schermerhorn Street,Brooklyn,NY,11201,40.68979,-73.98813,4,264.45,249.45
606740,1 Hotel Brooklyn Bridge,60 Furman Street,Brooklyn,NY,11201,40.70164,-73.99553,5,893.13,297
574577,The Justice Manor,154 Washington Ave,Brooklyn,NY,11205,40.69408,-73.96703,3,250.06,150.05
560109,Your NYC Vacation,61 Jefferson Avenue,Brooklyn,NY,11216,40.68274,-73.95481,3.5,0,0
571573,Howard Johnson Brooklyn,524 Rockaway Avenue,Brooklyn,NY,11212,40.66712,-73.91037,2.5,399.6861,299.5143
593037,La Quinta Inn & Suites Brooklyn - Williamsburg,437 Union Avenue,Brooklyn,NY,11211,40.71323,-73.95153,2.5,159.8902,158.8902
574283,Franklin Guesthouse,214 Franklin Street,Brooklyn,NY,11222,40.73305,-73.95812,3,349.48,249.48
621717,Bogart Hotel,19 Bogart Street,Brooklyn,NY,11206,40.70385,-73.93318,2.5,115.72,114.72
630346,Hotel RL by Red Lion Brooklyn,1080 Broadway,Brooklyn,NY,11221,40.69429,-73.93105,3,159.43,134.43
668894,La Quinta Inn & Suites Brooklyn Central,1229 Atlantic Avenue,Brooklyn,NY,11216,40.67862,-73.95015,2.5,0,0
675714,Illumination Bed & Breakfast,138 Saint James Place,Brooklyn,NY,11238,40.68579,-73.96457,2.5,121.309,120.309
677501,Bright 3BR in Williamsburg by Sonder,Grand Street and Humboldt St,Brooklyn,NY,11211,40.71179,-73.94223,3.5,0,0
126317,Holiday Inn Express & Suites Buffalo Downtown,601 Main St,Buffalo,NY,14203,42.89024,-78.87295,2.5,139.0073,119.0063
444461,Best Western on the Avenue,510 Delaware Ave,Buffalo,NY,14202,42.89829,-78.87444,2.5,209.42,139.42
139991,DoubleTree Club by Hilton Buffalo Downtown,125 High St,Buffalo,NY,14203,42.90034,-78.86462,3,189.0099,125.107
313375,Embassy Suites Buffalo,200 Delaware Avenue,Buffalo,NY,14202,42.88991,-78.87702,3.5,200.18,140.15
195844,Hampton Inn & Suites Buffalo Downtown,220 Delaware Ave,Buffalo,NY,14202,42.89053,-78.87686,3,399.25,189
407475,Hotel @ The Lafayette,391 Washington St,Buffalo,NY,14203,42.88493,-78.87354,3.5,239,149
111604,Hyatt Regency Buffalo / Hotel and Conference Center,Two Fountain Plaza,Buffalo,NY,14202,42.88855,-78.87464,3.5,189.09,169.09
195178,The Mansion On Delaware Ave,414 Delaware Ave,Buffalo,NY,14202,42.89563,-78.87524,4,410.57,225.43
454853,Courtyard Buffalo Downtown / Canalside,"One Canalside, 125 Main Street",Buffalo,NY,14203,42.87774,-78.87586,3,199.32,189.32
427323,Lofts on Pearl,92 Pearl Street,Buffalo,NY,14202,42.88145,-78.87699,3,170,169
177257,Adam's Mark Buffalo,120 Church St,Buffalo,NY,14202,42.88365,-78.8799,3,342.04,199.03
474465,Hilton Garden Inn Buffalo Downtown,10 Lafayette Square,Buffalo,NY,14203,42.88597,-78.87377,3,179.1474,129.1062
542976,Buffalo Marriott Harborcenter,95 Main St,Buffalo,NY,14203,42.87722,-78.87716,3.5,299.49,199.49
589933,The Westin Buffalo,250 Delaware Ave,Buffalo,NY,14202,42.89075,-78.87674,4,239.21,169.21
683102,Burdett House Bed & Breakfast,3789 Main Street,Burdett,NY,14818,42.41727,-76.85054,3,126.21,125.21
185040,"Motel 6 Calcium, NY",8000 Virginia Smith Drive,Calcium,NY,13616,44.03371,-75.84169,2,66.47,50.47
224504,Villa Roma Resort and Conference Center,356 Villa Roma Rd,Callicoon,NY,12723,41.76228,-74.97584,3,414.9994,249.6014
525467,Econo Lodge Inn & Suites Canandaigua,4232 Route 5 and 20,Canandaigua,NY,14424,42.86957,-77.23448,2,61.31,60.31
421629,Holiday Inn Express Canandaigua - Finger Lakes,330 Eastern Blvd.,Canandaigua,NY,14424,42.87644,-77.2498,2.5,134.34,97.34
328763,Chalet of Canandaigua,3770 State Route 21,Canandaigua,NY,14424,42.84383,-77.31429,4,246.37,245.37
411546,Onanda by the Lake,4926 West Lake Road,Canandaigua,NY,14424,42.78526,-77.31399,3,156.31,155.31
201894,Super 8 Canandaigua,4450 Eastern Blvd,Canandaigua,NY,14424,42.87778,-77.25687,2,93.3829,57.235
600871,Morgan Samuels Inn,2920 Smith Rd,Canandaigua,NY,14424,42.89032,-77.23144,4,299.22,189.22
597994,1837 Cobblestone Cottage,3402 West Lake Rd,Canandaigua,NY,14424,42.86347,-77.28164,4,245.06,215.06
593637,Bed and Breakfast at Oliver Phelps,252 North Main Street,Canandaigua,NY,14424,42.89552,-77.28726,4,209.8263,169.8594
659769,The Bella Ella Bed & Breakfast,2300 Brickyard Rd,Canandaigua,NY,14424,42.91862,-77.3248,3,90.2,66.2
682922,Filigree Inn Bed & Breakfast,5406 Bristol Valley Road Route 64,Canandaigua,NY,14424,42.75743,-77.40621,3,170.0463,169.0463
128750,Days Inn Canastota/Syracuse,377 North Peterboro Street,Canastota,NY,13032,43.08929,-75.75107,2,80.48,75.48
476203,Best Western University Inn,90 E Main Street,Canton,NY,13617-1452,44.59663,-75.15347,3,149.44,116.44
122324,University Suites Hotel,6000 US 11,Canton,NY,13617,44.60137,-75.13903,2.5,169.99,119.99
427011,"Homewood Suites by Hilton Carle Place - Garden City, NY",40 Westbury Ave,Carle Place,NY,11514,40.74944,-73.6195,3,179.03,151.05
577918,Springhill Suites by Marriott Carle Place Garden City,20 Westbury Avenue,Carle Place,NY,11514,40.74925,-73.6204,3,179.4,169.4
438212,Pleasant Night Inn,30 N Broad St,Carthage,NY,13619,43.97247,-75.62681,2,86.41,85.41
602129,Hampton Inn & Suites Cazenovia,25 Lakers Ln,Cazenovia,NY,13035,42.92565,-75.84077,2.5,169.31,149.31
615796,The Lincklaen House,79 Albany Street,Cazenovia,NY,13035,42.93018,-75.85295,3,130.45,130
397560,Chalet Inn & Suites Centerport,23 Centershore Road,Centerport,NY,11721-1526,40.888,-73.37216,2,120.0077,119.0077
439821,Residence Inn Long Island Islip/Courthouse Complex,7 Courthouse Drive,Central Islip,NY,11722,40.76443,-73.1922,3,259.0236,179.0195
213383,"Americas Best Value Inn, Central Valley",139 Route 32,Central Valley,NY,10917,41.32279,-74.12381,2,100,86.03
260707,Hampton Inn Harriman Woodbury,60 Centre Dr,Central Valley,NY,10917,41.31553,-74.12827,2.5,229.43,209.43
233455,Crabtree's Kittle House Restaurant & Inn,11 Kittle Road,Chappaqua,NY,10514,41.18161,-73.7454,3.5,187.0269,167.0303
235030,Spencer Hotel,25 Palestine Avenue,Chautauqua,NY,14722,42.20777,-79.46643,2.5,260.0134,195.0108
440128,Hampton Inn & Suites Buffalo Airport,133 Buell Avenue,Cheektowaga,NY,14225,42.92947,-78.73732,2.5,269.39,149.39
126618,Comfort Suites Buffalo Airport,901 Dick Rd,Cheektowaga,NY,14225,42.9267,-78.74267,2.5,109.0173,99.0327
202407,Sleep Inn & Suites Buffalo Airport,100 Holtz Dr,Cheektowaga,NY,14225,42.93692,-78.71752,2.5,150.0172,110.0028
204944,Best Western The Inn At Buffalo Airport,4630 Genesee St,Cheektowaga,NY,14225,42.93494,-78.71461,2.5,110.0028,76.5057
324274,Fairfield Inn & Suites by Marriott Buffalo Airport,4271 Genesee Street,Cheektowaga,NY,14225,42.93223,-78.72767,2.5,134.35,129.35
237455,Hilton Garden Inn Buffalo Airport,4201 Genesee St,Cheektowaga,NY,14225,42.93134,-78.7321,3,164.42,139.42
431259,TownePlace Suites Buffalo Airport,4265 Genesee St,Cheektowaga,NY,14225,42.93039,-78.72905,2.5,134.1103,124.102
116007,Hampton Inn Buffalo-Airport / Galleria Mall,1745 Walden Ave,Cheektowaga,NY,14225,42.90857,-78.77271,2.5,139.3911,109.798
216066,Holiday Inn Express Hotel & Suites Buffalo-Airport,131 Buell Ave,Cheektowaga,NY,14225,42.9284,-78.73919,2.5,149.0227,96.7669
458452,Holiday Inn Express Cheektowaga North East,83 Anderson Rd,Cheektowaga,NY,14206,42.9058,-78.77153,2.5,119.4231,99.4478
133541,Homewood Suites by Hilton Buffalo Airport,760 Dick Rd,Cheektowaga,NY,14225,42.92438,-78.74188,3,140.45,139.45
207479,Residence Inn by Marriott Buffalo Galleria Mall,107 Anderson Rd,Cheektowaga,NY,14225,42.90768,-78.7715,3,179.1235,143.1189
267201,Comfort Inn Cheektowaga,475 Dingens St,Cheektowaga,NY,14206,42.87765,-78.79798,2.5,109.9955,99.995
273683,Best Western Plus Galleria Inn & Suites,601 Dingens St,Cheektowaga,NY,14206,42.8776,-78.79478,2.5,132.19,74.46
112297,Days Hotel Buffalo Airport,4345 Genesee St,Cheektowaga,NY,14225,42.93264,-78.72571,3,169.41,135.45
379349,Courtyard Buffalo Airport,4243 Genesee St,Cheektowaga,NY,14225,42.93194,-78.72963,3,149.35,139.35
128366,Quality Inn Buffalo Airport,4217 Genesee St,Cheektowaga,NY,14225,42.93172,-78.73027,2.5,85.31,75.31
107927,Holiday Inn Buffalo - International Airport,4600 Genesee St,Cheektowaga,NY,14225,42.93463,-78.71586,3,125.09,76.06
225186,Millennium Buffalo,2040 Walden Ave,Cheektowaga,NY,14225,42.90852,-78.76042,3.5,203.14,74.35
218062,Oak Tree Inn Buffalo Airport,3475 Union Rd,Cheektowaga,NY,14225,42.90874,-78.75413,2,120.1235,119.1235
515447,Home2 Suites by Hilton Buffalo Airport / Galleria Mall,1999 Walden Avenue,Cheektowaga,NY,14225,42.90614,-78.76543,2.5,194.0792,135.6328
484533,Aloft Buffalo Airport,4219 Genesee Street,Cheektowaga,NY,14225,42.92984,-78.73087,3,149.31,124.31
590418,The Delavan Hotel & Spa,6461 Transit Road,Cheektowaga,NY,14043,42.93611,-78.69682,4,249,131.41
263248,Holiday Inn Express Hotel & Suites Chester,2 Bryle Place,Chester,NY,10918,41.35597,-74.28421,2.5,149.0227,110.0134
245496,The Fern Lodge,46 Fiddlehead Bay Rd,Chestertown,NY,12817,43.62546,-73.84953,3.5,525.0762,395.0557
334930,Holiday Inn Express Hotel & Suites Syracuse North - Cicero,5860 Carmenica Dr,Cicero,NY,13039,43.18126,-76.11636,2.5,144.1185,104.0856
313494,Comfort Suites Cicero - Syracuse North,5875 Carmenica Drive,Cicero,NY,13039,43.1814,-76.11482,2.5,116.37,99.37
222595,Budget Inn - Syracuse Airport,901 S Bay Rd,Cicero,NY,13039,43.1438,-76.11565,1.5,61,60
257355,Asa Ransom House,10529 Main St Rte 5,Clarence,NY,14031,42.98039,-78.59531,3,195.39,147.39
454459,Clarence Inn,9079 Main Steet,Clarence,NY,14031,42.96864,-78.65275,2,89.04,69.12
257072,Americas Best Value Inn & Suites - Clarence/Buffalo East,9370 Main St,Clarence,NY,14031,42.97112,-78.641,2,89.39,49.39
338438,Blue Horizon Bed and Breakfast,60 Dinch Road,Claryville,NY,12725,41.92017,-74.50429,2.5,151.38,150.38
205008,Hampton Inn Clifton Park,620 Plank Rd,Clifton Park,NY,12065,42.86566,-73.77762,2.5,139.42,101.42
243860,"Park Manor Hotel, an Ascend Hotel Collection Member",7 Northside Dr,Clifton Park,NY,12065,42.86415,-73.77139,3.5,149.35,129.35
210266,Best Western Clifton Park,617 Plank Road,Clifton Park,NY,12065,42.86392,-73.7782,2.5,120.99,89.99
397197,Hilton Garden Inn Clifton Park,30 Clifton Country Rd,Clifton Park,NY,12065,42.85839,-73.78054,3,199.0249,160.5763
131471,Red Roof Inn Clifton Park,41 Old Rt 146,Clifton Park,NY,12065,42.86572,-73.7733,2,85.31,70.31
264424,Holiday Inn Express Suites Clifton Park,18 Clifton Park Village Rd,Clifton Park,NY,12065,42.86777,-73.77311,2.5,145.47,113.47
462877,Residence Inn Albany Clifton Park,1740 Route 9,Clifton Park,NY,12065,42.8695,-73.77361,3,179.32,143.32
546889,Homewood Suites by Hilton Clifton Park,42 Clifton Country Road,Clifton Park,NY,12065,42.85777,-73.78102,3.5,159.6538,139.5718
606297,Courtyard by Marriott Clifton Park,627 Plank Road,Clifton Park,NY,12065,42.8649,-73.77789,3,259.12,199.1
645442,La Quinta Inn & Suites Clifton Park,1749 Route 9,Clifton Park,NY,12065,42.87137,-73.77386,2.5,109.46,99.46
400295,Fairway Suites at Peek'n Peak,1433 Conway Road,Clymer,NY,14724,42.06232,-79.72562,2.5,999.0516,139.0073
413898,Peek'N Peak Inn,1405 Olde Road,Clymer,NY,14724,42.06238,-79.73487,3.5,159.48,120.48
208656,Rodeway Inn and Suites,121 Burgin Drive,Cobleskill,NY,12043,42.68236,-74.47311,3,104.44,75.44
234691,"Super 8 Cobleskill, NY",955 East Main Street,Cobleskill,NY,12043,42.68007,-74.46662,2,79.949,67.9567
421552,The Harbor Rose,253 Harbor Road (25A),Cold Spring Harbor,NY,11724,40.86025,-73.46236,3,249.0954,239.1109
117726,Hampton Inn Long Island / Commack,680 Commack Road,Commack,NY,11725,40.80658,-73.29452,2.5,209.49,149.49
221609,Holiday Express Hotel & Suites Cooperstown,4758 State Highway 28,Cooperstown,NY,13326,42.65385,-74.96434,2.5,219.35,179.35
495475,Best Western Cooperstown Inn & Suites,50 Commons Drive,Cooperstown,NY,13326,42.64994,-74.96437,2.5,185.18,136.43
427675,The Willow Tree Inn,3179 County Highway 33,Cooperstown,NY,13326,42.76616,-74.83709,2.5,161.4,160.4
431010,Landmark Inn,64 Chestnut  Street,Cooperstown,NY,13326,42.69847,-74.92975,3.5,219.0114,109.0058
539464,Red Carpet Inn & Suites Cooperstown,4909 State Hwy 28,Cooperstown,NY,13326,42.66118,-74.95806,2.5,94.99,89.46
269811,Days Inn Long Island / Copiague,10 34th St,Copiague,NY,11726,40.69151,-73.39649,2,157.5186,108.0137
127535,Econo Lodge Darien Lakes,8493 Route 77,Corfu,NY,14036,43.00066,-78.40583,2,81.48,80.48
200422,Staybridge Suites Corning,201 Townley Ave,Corning,NY,14830,42.15431,-77.05465,3,154.3,118.3
112958,Radisson Hotel Corning,125 Denison Pkwy E,Corning,NY,14830,42.1418,-77.04934,3.5,164.47,122.47
121388,Comfort Inn Corning,66 W Pulteney St,Corning,NY,14830,42.15126,-77.06335,2.5,131.3,130.3
129026,Fairfield Inn Marriott Corning,3 S Buffalo St,Corning,NY,14830,42.1532,-77.07886,2.5,140.45,139.45
194789,Budget Inn Corning,11385 LPGA Drive,Corning,NY,14830,42.11965,-77.00878,2,71.29,64.61
655329,Nel's Place,1897 Ranch Lane,Corning,NY,14830,42.09664,-77.08881,3.5,119.24,69
406229,Cadet Motel,2582 US Highway 9W,Cornwall,NY,12518,41.44376,-74.03944,2,100,99
383182,Gavin's Irish Country Inn,118 Golden Hill Road,Cornwallville,NY,12418,42.3731,-74.10595,2.5,208.152,207.152
421762,SpringHill Suites by Marriott New York LaGuardia Airport,112-15 Northern Boulevard,Corona,NY,11368,40.75815,-73.85739,2.5,190.01,189.01
196366,Holiday Inn LaGuardia Airport,37-10 114th Street,Corona,NY,11368,40.75455,-73.85364,3,399.49,179.49
542081,Best Western Plus LaGuardia Airport Hotel Queens,112-26 Roosevelt Avenue,Corona,NY,11368-2624,40.75223,-73.85364,3,180.1381,117.0863
646278,Corona Hotel,112-23 Roosevelt Avenue,Corona,NY,11368,40.75244,-73.85379,2.5,145.2195,129.3064
108351,Ramada Cortland Hotel and Conference Center,2 River St,Cortland,NY,13045,42.60687,-76.167,2.5,135.23,101.23
348223,Hope Lake Lodge & Indoor Waterpark,2000 NYS Rt. 392,Cortland,NY,13045,42.51581,-76.14382,3.5,470.0696,290.0468
142545,Quality Inn Cortland,188 Clinton Ave,Cortland,NY,13045,42.6113,-76.16515,2.5,86.34,85.34
375192,Holiday Inn Express Cortland,4.5 Locust Avenue,Cortland,NY,13045,42.6107,-76.16617,2.5,150.36,122.36
218627,"Country Inn & Suites By Carlson, Cortland",3707 Route 281,Cortland,NY,13045,42.5863,-76.21124,3,189.0266,127.2168
216453,Hampton Inn Cortland,26 River St,Cortland,NY,13045,42.60673,-76.16479,2.5,139.47,118.47
119284,Comfort Inn Cortland,2 And One Half Locust Ave,Cortland,NY,13045,42.61051,-76.16583,2.5,96.4,95.4
207575,Econo Lodge Cortland,10 Church St,Cortland,NY,13045,42.6012,-76.17803,2,115.95,109.95
499146,Best Western Plus Finger Lakes Inn & Suites,3175 Fingerlake East Drive,Cortland,NY,13045,42.56142,-76.2268,2.5,194.35,134.35
560085,Imperial Motel,28 Port Watson St,Cortland,NY,13045,42.59777,-76.17873,2,60.006,59.006
657822,Red Roof Inn Cortland,2B River St,Cortland,NY,13045,42.60703,-76.16563,2,60.1523,59.1523
210604,Best Western New Baltimore Inn,12600 Rt 9W,Coxsackie,NY,12192,42.38837,-73.83188,2.5,120.36,109.91
312062,Holiday Inn Express Hotel & Suites West Coxsackie,12740 State Route 9 W,Coxsackie,NY,12192,42.39475,-73.82717,2.5,159.36,139.36
185382,Econo Lodge Cuba,1 N Branch Road,Cuba,NY,14727,42.22619,-78.27164,2,91.47,90.47
252431,Econo Lodge DeWitt,3400 Erie Blvd E,DeWitt,NY,13214,43.0479,-76.07061,2,71.39,70.39
679656,Olympian Resort Motel,3716 Lake Shore Dr,Diamond Point,NY,12824,43.48092,-73.68541,2.5,160.6538,159.6538
506156,Best Western Dunkirk & Fredonia Inn,3912 Vineyard Drive,Dunkirk,NY,14048,42.45986,-79.31554,2.5,90.9945,89.9945
138892,Clarion Hotel & Conference Center,30 Lake Shore Dr E,Dunkirk,NY,14048,42.48755,-79.3339,2.5,110.4,100.4
465474,Comfort Inn,3925 Vineyard Dr,Dunkirk,NY,14048,42.45878,-79.31579,2.5,110.3,100.3
658054,Adirondack Lodge Old Forge,2752 State Route 28,Eagle Bay,NY,13420,43.70179,-74.99261,2.5,89.2288,79.2038
215168,Hampton Inn East Aurora,49 Olean St,East Aurora,NY,14052,42.76656,-78.60798,2.5,154.47,114.47
310636,Hampton Inn New York - LaGuardia Airport,102-40 Ditmars Blvd,East Elmhurst,NY,11369,40.7683,-73.86758,2.5,189.22,161.23
148864,LaGuardia Plaza Hotel,104-04 Ditmars Blvd,East Elmhurst,NY,11369,40.76774,-73.86656,3.5,289.23,237.23
106443,New York LaGuardia Airport Marriott,102-05 Ditmars Boulevard,East Elmhurst,NY,11369,40.76842,-73.8676,3.5,209.43,189.43
107364,Airway Inn at LaGuardia,82-20 Astoria Blvd,East Elmhurst,NY,11370,40.7644,-73.88697,1.5,145.42,125.42
325471,Comfort Inn LaGuardia Airport - 83rd St,2345 83rd St,East Elmhurst,NY,11370,40.76585,-73.88627,2.5,181.4,180.4
126855,Courtyard New York LaGuardia Airport,9010 Ditmars Blvd,East Elmhurst,NY,11369,40.76931,-73.88026,3,249.16,169.16
152230,The Landing at LaGuardia,9400 Ditmars Blvd,East Elmhurst,NY,11369,40.76912,-73.87631,2.5,175,155
534327,NYC Summer Dorms Queens,22-40 90th Street,East Elmhurst,NY,11369,40.76743,-73.88227,2,100,99
231410,Residence Inn by Marriott Albany East Greenbush/Tech Valley,3 Tech Valley Dr,East Greenbush,NY,12061,42.63003,-73.69869,3,149.0333,134.0199
219299,Comfort Inn & Suites East Greenbush - Albany,99 Miller Rd,East Greenbush,NY,12033,42.5793,-73.68184,2.5,139.4,119
124299,Fairfield Inn by Marriott Albany East Greenbush,124 Troy Rd,East Greenbush,NY,12061,42.62569,-73.70015,2.5,140.01,139.01
219204,Americas Best Value Inn-Albany / East Greenbush,576 Columbia Turnpike,East Greenbush,NY,12061,42.60108,-73.7124,2,80.18,70.18
616404,Hampton Inn & Suites Albany-East Greenbush,25 Hampton Inn Drive,East Greenbush,NY,12061,42.62423,-73.70092,2.5,139.05,119.05
530991,"East Norwich Inn-Oyster Bay, Long Island, NY",6321 Northern Blvd.,East Norwich,NY,11732,40.84238,-73.534,2.5,93.614,80.1982
350797,The Shearwater Inn,25 Josiah Foster Path,East Quogue,NY,11942,40.84769,-72.5684,3,324.6728,299.7008
194176,Cresthill Suites Syracuse,6410 New Venture Gear Dr,East Syracuse,NY,13057,43.08976,-76.07658,3,159.04,99.04
313533,Holiday Inn Express & Suites Dewitt (Syracuse),5908 Widewaters Pkwy,East Syracuse,NY,13057,43.05321,-76.06531,2.5,139.48,111.48
106396,DoubleTree by Hilton Syracuse,6301 Route 298,East Syracuse,NY,13057,43.08661,-76.08265,3.5,149.46,139.46
273356,Ramada East Syracuse Carrier Circle,6555 Old Collamer Road S,East Syracuse,NY,13057,43.08963,-76.08703,3,120.88,106.95
117873,Courtyard Syracuse Carrier Circle,6415 Yorktown Cir,East Syracuse,NY,13057,43.09129,-76.08724,3,199.18,143.16
342671,Springhill Suites by Marriott Syracuse Carrier Circle,6580 Weighlock Drive,East Syracuse,NY,13057,43.08944,-76.08021,3,149.22,129.01
185206,Americas Best Value Inn East Syracuse,6608 Old Collamer Rd S.,East Syracuse,NY,13057,43.09103,-76.08546,2,46.06,45.88
200234,Hilton Garden Inn Syracuse,6004 Fair Lakes Rd,East Syracuse,NY,13057,43.09179,-76.07301,3,189.36,149.36
124041,Quality Inn East Syracuse,6611 Old Collamer Rd South,East Syracuse,NY,13057,43.09149,-76.08557,2.5,96,95
124505,Embassy Suites Syracuse,6646 Old Collamer Road South,East Syracuse,NY,13057,43.09247,-76.08468,3.5,159.24,118.24
117777,East Syracuse Inn,6605 Old Collamer Rd S.,East Syracuse,NY,13057,43.0906,-76.08621,2.5,90.24,89.24
147610,Candlewood Suites East Syracuse - Carrier Circle,6550 Baptist Way,East Syracuse,NY,13057,43.0892,-76.08877,2.5,180.32,99.32
130522,Extended Stay America - Syracuse - Dewitt,6630 Old Collamer Rd S.,East Syracuse,NY,13057,43.09178,-76.08506,2.5,74.99,71.24
125427,Residence Inn Syracuse Carrier Circle,6420 Yorktown Cir,East Syracuse,NY,13057,43.09103,-76.08764,3,155.35,154.35
458740,Motel 6 Syracuse,6577 Baptist Way,East Syracuse,NY,13057,43.08934,-76.08825,2,47.34,46.34
546865,Hampton Inn & Suites Syracuse/Carrier Circle,6377 Court Street Rd,East Syracuse,NY,13057,43.09046,-76.07924,2.5,139,98.1
552184,Homewood Suites by Hilton Syracuse - Carrier Circle,6006 Fair Lakes Rd,East Syracuse,NY,13057,43.09234,-76.07108,3,144,119
594894,Sleep Inn & Suites Airport,6344 East Molloy Road,East Syracuse,NY,13057,43.09999,-76.08214,2.5,164.38,159.38
201579,Super 8 Syracuse East,6620 Old Collamer Road,East Syracuse,NY,13057,43.09141,-76.08521,2,46.2606,45.2606
626520,Fairfield Inn and Suites by Marriott Syracuse Carrier Circle,6593 Weighlock Drive,East Syracuse,NY,13057,43.08945,-76.08023,2.5,114.38,104.38
237167,Wingate by Wyndham Ellicottville,11 Mill St,Ellicottville,NY,14731,42.27617,-78.66898,2.5,249.42,129.42
362107,The Tamarack,6447 Holiday Valley Rd,Ellicottville,NY,14731,42.26294,-78.66662,3,314,140
509401,Hotel Q New York,76-01 Queens Blvd,Elmhurst,NY,11373,40.73928,-73.88947,2.5,130,113.994
428411,Fairfield Inn & Suites Elmira Corning,1600 County Route 64,Elmira,NY,14845,42.15934,-76.86122,2.5,124.49,93.49
127533,Econo Lodge Elmira,871 County Road 64,Elmira,NY,14903,42.15454,-76.87944,2,78.32,75.32
107893,Holiday Inn Elmira - Riverview,760 E Water St,Elmira,NY,14901,42.08926,-76.79326,3,119.4,80.4
576225,Enchanted Cottage on Glen,323 Glen Avenue,Elmira,NY,14905,42.0826,-76.85083,3,235.09,234.09
576222,Castle on Glen,320 Glen Avenue,Elmira,NY,14905,42.08229,-76.85086,3.5,280.551,279.551
238405,Days Inn Elmsford,25 Valley Ave,Elmsford,NY,10523,41.05494,-73.82187,2,125.43,115.43
193174,Extended Stay America - White Plains - Elmsford,118 West Main Street,Elmsford,NY,10523,41.05215,-73.81391,2,100.0722,95.0682
129251,Hampton Inn White Plains,200 West Main Street,Elmsford,NY,10523,41.05827,-73.82684,2.5,169.24,169
106926,La Quinta Inn & Suites White Plains - Elmsford,540 Saw Mill River Rd,Elmsford,NY,10523,41.07068,-73.81631,2.5,114.41,109.41
533836,Red Carpet Inn Endicott Binghamton,749 West Main Street,Endicott,NY,13760,42.09224,-76.08308,2,120.4,41.4
116102,Knights Inn Endwell Binghamton,2603 E Main St,Endwell,NY,13760,42.10472,-76.03283,2,55.869,54.869
408003,Days Inn Evans Mills/Fort Drum,25940 US Route 11,Evans Mills,NY,13637,44.04289,-75.83851,2,125.19,75.19
313138,Candlewood Suites Watertown Fort Drum,26513 Herrick Drive,Evans Mills,NY,13637,44.04233,-75.84399,2.5,100.36,91.36
117021,Woodcliff Hotel and Spa,199 Woodcliff Dr,Fairport,NY,14450,43.04518,-77.45575,4,214.19,159.19
171398,Red Roof Inn Jamestown - Falconer,1980 E Main Street,Falconer,NY,14733,42.12597,-79.19039,2,89.9945,79.994
543633,AnYi Guesthouse JFK,169 Beach 62nd Street,Far Rockaway,NY,11692,40.59083,-73.79125,2.5,121,120
556678,La Quinta Inn & Suites Far Rockaway - JFK Airport,4317 Rockaway Beach Blvd.,Far Rockaway,NY,11691,40.59369,-73.77518,2.5,135.0164,125.0158
252508,Courtyard by Marriott Republic Aprt Long Island/Farmingdale,2 Marriott Plaza,Farmingdale,NY,11735,40.72829,-73.42244,3,210.41,209.41
366167,Americana Inn Farmingdale,727 Broadhollow Rd,Farmingdale,NY,11735,40.72528,-73.4239,2,100.33,75.33
262187,TownePlace Suites by Marriott Republic Airport Long Island,1 Marriott Plaza,Farmingdale,NY,11735,40.72832,-73.42195,2.5,160.45,159.45
267337,Comfort Inn & Suites Farmington - Victor,6026 Route 96,Farmington,NY,14425,42.97502,-77.35579,2,150.16,149.99
188068,Finger Lakes Hotel,6108 Loomis Rd,Farmington,NY,14425,42.99231,-77.35539,2,116.33,104.33
206206,Americas Best Value Inn,6037 Route 96,Farmington,NY,14425,42.9744,-77.35385,2,109,59
178162,Hampton Inn Long Island-Brookhaven,2000 North Ocean Ave.,Farmingville,NY,11738,40.8258,-73.02057,2.5,189.14,149.11
122211,Craftsman Inn and Conference Center,7300 E Genesee Street,Fayetteville,NY,13066,43.02918,-76.01802,2.5,165.66,126.66
196902,Holiday Inn Express Hotel & Suites Findley Lake -I-86 Exit 4,3025 Route 426,Findley Lake,NY,14736,42.13276,-79.74201,2.5,104.45,81.45
141354,Extended Stay America - Fishkill - Route 9,25 Merritt Blvd,Fishkill,NY,12524,41.53035,-73.89201,2.5,100.39,90.39
259272,Quality Inn & Suites,849 Route 52,Fishkill,NY,12524,41.52663,-73.91857,2.5,130.3,110.3
108066,Ramada Fishkill,542 Route 9,Fishkill,NY,12524,41.52559,-73.89098,3,135.3,93.3
139472,Hampton Inn Fishkill,544 Route 9,Fishkill,NY,12524,41.52605,-73.89114,2.5,125.24,116.23
112829,Hawthorn Suites by Wyndham Fishkill/Poughkeepsie Area,14 Schuyler Blvd,Fishkill,NY,12524,41.52752,-73.89166,3,159.36,77.36
261404,Extended Stay America Fishkill - Westage Center,55 W Merritt Blvd,Fishkill,NY,12524,41.52906,-73.89672,2.5,91.39,90.39
126837,Courtyard Fishkill by Marriott,17 Westage Drive,Fishkill,NY,12524,41.52717,-73.89275,3,143.33,134.33
212088,Hilton Garden Inn Fishkill,25 Westage Road,Fishkill,NY,12524,41.52715,-73.89279,3,180.43,179.43
239215,HYATT house Fishkill/Poughkeepsie,100 Westage Business Center Dr.,Fishkill,NY,12524,41.52834,-73.8955,3,170.3,169.3
131411,Magnuson Hotel Fishkill,20 Schuyler Blvd,Fishkill,NY,12524,41.52756,-73.89155,2.5,90,80
264587,Holiday Inn Express Fishkill-Mid Hudson Valley,21 Schuyler Blvd,Fishkill,NY,12524,41.52755,-73.89153,2.5,190.37,171.37
629201,Residence Inn by Marriott Fishkill,500 Westage Business Center Drive,Fishkill,NY,12524,41.52488,-73.89516,3,299.23,219.23
629208,SpringHill Suites by Marriott Fishkill,500 Westage Business Center Drive,Fishkill,NY,12524,41.52488,-73.89516,3,139.9827,138.9827
277638,Quality Inn Floral Park,256-15 Jericho Turnpike,Floral Park,NY,11001,40.72779,-73.70828,2.5,149.0227,109.0188
489196,The Floral Park Motor Lodge,30 Jericho Turnpike,Floral Park,NY,11001,40.72698,-73.71176,2,150.2,105
345975,Red Roof Inn Flushing New York - LaGuardia Airport,36-31 Prince St,Flushing,NY,11354,40.76142,-73.83289,2,131.44,130.44
237872,Flushing Central Hotel,135-33 38th Avenue,Flushing,NY,11354,40.76064,-73.83121,2,119.32,100.32
212041,Best Western Queens Court Hotel,133-51 39th Avenue,Flushing,NY,11354,40.76086,-73.82807,2.5,179.99,153.09
420542,Asiatic Hotel by LaGuardia Airport,135-21 37th Avenue,Flushing,NY,11354,40.76113,-73.83228,2,129.36,109.36
205267,Holiday Inn Express Laguardia Airport,113-10 Horace Harding Expressway,Flushing,NY,11368,40.73887,-73.84861,2.5,159.38,149.38
206816,Prince Flushing Hotel,133-43 37th Avenue,Flushing,NY,11354,40.76065,-73.83364,2.5,140.34,139.34
128591,Sheraton LaGuardia East Hotel,135-20 39th Ave,Flushing,NY,11354,40.75983,-73.83184,3.5,823.1216,269.8385
203455,Fairfield Inn by Marriott LaGuardia Airport/Flushing,2866 College Point Blvd,Flushing,NY,11354,40.77146,-73.84408,2.5,169.149,159.1408
462419,Flushing Ymca,138-46 Northern Blvd. ,Flushing,NY,11354,40.76419,-73.82648,2,107.1,97.1
446007,The Parc Hotel,3916 College Point Blvd,Flushing,NY,11354,40.75842,-73.83437,2.5,249.0377,139.0244
446644,Hyatt Place Flushing/LaGuardia Airport,133-42 39th Avenue,Flushing,NY,11354,40.75946,-73.83297,3,360.43,359.43
452803,Ramada Flushing Queens,3627 Prince St,Flushing,NY,11354,40.76154,-73.83292,2,291.05,156.54
543637,AnYi Guesthouse Flushing,38 Avenue and Prince Street,Flushing,NY,11354,40.76032,-73.83269,2.5,101,100
557122,AnYi Guesthouse LaGuardia,62nd Road 136th Street,Flushing,NY,11367,40.74064,-73.82811,2.5,95.0783,69.0569
243251,Marco LaGuardia Hotel by Lexington,137-07 Northern Boulevard,Flushing,NY,11354,40.76335,-73.83092,3.5,199.0249,159.021
199476,White Inn,52 East Main Street,Fredonia,NY,14063,42.4411,-79.32953,3,169.0088,89.0047
126517,Days Inn Fredonia,10455 Bennett Road - Route 60,Fredonia,NY,14063,42.45625,-79.31093,2,110.39,90.39
273734,The Freeport Inn and Marina,445 S Main St,Freeport,NY,11520,40.64447,-73.5751,3,267.17,179.45
666812,Wyndham Garden Fresh Meadows Flushing,6127 186th St,Fresh Meadows,NY,11365,40.73915,-73.78755,3.5,178.37,94.4
669604,Courtyard New York Queens/fresh Meadows,18315 Horace Harding Expy,Fresh Meadows,NY,11365,40.74016,-73.7904,3,0,0
676427,Fairfield Inn & Suites New York Queens/Fresh Meadows,183-31 Horace Harding Expy,Fresh Meadows,NY,11365,40.73994,-73.79122,2.5,0,0
350351,Red Roof Inn Fulton,930 S 1st St,Fulton,NY,13069,43.30806,-76.39816,2.5,78.03,68.02
160671,The Garden City Hotel,45 7th St,Garden City,NY,11530,40.72414,-73.63951,4,269.36,242.36
333588,Hyatt Place Garden City,5 North Ave,Garden City,NY,11530,40.74197,-73.60812,3,170,169
246232,Hampton Inn Garden City,1 North Ave,Garden City,NY,11530,40.74161,-73.60966,2.5,229.49,179.49
173161,La Quinta Inn & Suites Garden City,821 Stewart Ave,Garden City,NY,11530,40.73338,-73.60424,2.5,165.01,155.01
379707,Hampton Inn Geneseo,4250 Lakeville Rd,Geneseo,NY,14454,42.79746,-77.78781,2.5,169.42,129.42
231929,Quality Inn Geneseo,4242 Lakeville Rd,Geneseo,NY,14454,42.79718,-77.78871,2.5,126.37,125.37
591575,Temple Hill Bed & Breakfast,114 Temple Hill Street,Geneseo,NY,14454,42.79393,-77.80843,3,140.35,139.35
132560,Ramada Geneva Lakefront,41 Lake Front Blvd,Geneva,NY,14456,42.86366,-76.98185,3,144.49,110.49
333256,Microtel Inn & Suites by Wyndham Geneva,550 Hamilton St,Geneva,NY,14456,42.8565,-77.00775,2,109.34,89.34
378586,Days Inn Geneva,485 Hamilton St,Geneva,NY,14456,42.85693,-77.00408,2,64.35,60.35
242232,Hampton Inn Geneva,43 Lake St,Geneva,NY,14456,42.87004,-76.97945,2.5,139.35,107.35
223893,Americas Best Value Inn,473 Hamilton St,Geneva,NY,14456,42.85709,-77.00338,2,240.47,129.47
475566,Holiday Inn Express & Suites Geneva Finger Lakes,530 Hamilton St,Geneva,NY,14456,42.85657,-77.00666,2.5,110.44,90.44
612856,Fairfield Inn & Suites by Marriott Geneva Finger Lakes,383 Hamilton St,Geneva,NY,14456,42.85809,-76.99835,3,114.0053,85.0138
204898,Glen Cove Mansion Hotel,200 Dosoris Ln,Glen Cove,NY,11542,40.88382,-73.63072,4,160.45,140.45
122400,Comfort Inn Glenmont,37 Route 9W,Glenmont,NY,12077,42.62296,-73.77729,2.5,101.0044,100.0044
215201,Days Inn and Suites Glenmont/Albany,15 Frontage Rd,Glenmont,NY,12077,42.61995,-73.78253,2,144.18,124.18
203873,The Queensbury Hotel,88 Ridge St,Glens Falls,NY,12801,43.31171,-73.64377,3,99,89
401700,The Glens Falls Inn,25 Sherman Avenue,Glens Falls,NY,12801,43.31093,-73.65242,3,190.37,189.37
231167,Comfort Inn & Suites Goshen - Middletown,20 Hatfield Ln,Goshen,NY,10924,41.3942,-74.33914,2.5,124,99
107928,Radisson Hotel Niagara Falls-Grand Island,100 Whitehaven Rd,Grand Island,NY,14072,43.02219,-78.89931,3,89.47,79.27
460541,Budget Motel,3080 Grand Island Blvd,Grand Island,NY,14072,43.04652,-78.9864,2,65.46,56.46
460515,Jade Inn Motel,2529 Grand Island Blvd.,Grand Island,NY,14072,43.03069,-78.97127,2,186.46,185.46
194559,The Andrew Hotel,75 N Station Plaza,Great Neck,NY,11021,40.78799,-73.72528,3.5,209.03,179
542150,"Inn at Great Neck, BW Premier Collection",30 Cutter Mill Road,Great Neck,NY,11021,40.78659,-73.72925,4,319,168.21
657566,Harbor Knoll Bed and Breakfast,424 Fourth Street,Greenport,NY,11944,41.09886,-72.36378,4,275.09,250.08
366967,Antons on the Lake Country Inn and Marina,7 Waterstone Road,Greenwood Lake,NY,10925,41.21971,-74.29018,3,165.16,125.16
226912,Ruah Bed & Breakfast,9221 Lake Shore Drive,Hague,NY,12836,43.751,-73.48694,3.5,160.9214,159.9214
409771,The Twilight Lodge,5085 Main Street 23A,Haines Falls,NY,12436,42.19521,-74.09532,2.5,121.31,83.31
310517,Holiday Inn Express Hotel & Suites Hamburg,3565 Commerce Place,Hamburg,NY,14075,42.74065,-78.85127,2.5,208.9146,138.5189
169075,Comfort Inn And Suites Hamburg,3615 Commerce Pl,Hamburg,NY,14075,42.74071,-78.85123,2.5,75.36,70.36
127174,Red Roof Inn Buffalo - Hamburg,5370 Camp Road,Hamburg,NY,14075,42.74101,-78.84892,2,80.35,74.99
337647,Super 8 Hamburg,5442 Camp Rd,Hamburg,NY,14075,42.73945,-78.8455,2,50.42,42.42
462654,"Motel 6 Hamburg, NY",5245 Camp Rd,Hamburg,NY,14075,42.74463,-78.84921,2,51.39,46.39
107152,Quality Inn Hamburg,5440 Camp Road,Hamburg,NY,14075,42.73901,-78.84509,2.5,104.4,84.4
457426,18 Vine Inn & Carriage House,18 Vine Street,Hammondsport,NY,14840,42.40692,-77.2252,3,349.8639,178.936
597268,Best Western Plus The Hammondsport Hotel,8440 State Route 54,Hammondsport,NY,14840,42.39912,-77.22748,2.5,149.47,108.47
194743,Holiday Inn Express Hauppauge,2050 Express Dr S,Hauppauge,NY,11788,40.80814,-73.22067,2.5,169,149
105739,Radisson Hotel Hauppauge-Long Island,110 Vanderbilt Motor Pkwy,Hauppauge,NY,11788,40.80602,-73.26543,3.5,170.0299,169.0299
179765,Hyatt Regency Long Island at Wind Watch Golf Club,1717 Motor Parkway,Hauppauge,NY,11788,40.81319,-73.17256,3.5,349.31,149
203116,Residence Inn By Marriott Long Island Hauppauge,850 Veterans Memorial Hwy,Hauppauge,NY,11788,40.82057,-73.20378,3,169.31,149.31
244250,Bricktown Inn,112 Hudson Ave,Haverstraw,NY,10927,41.19477,-73.9675,2.5,166.2,165.2
608333,Single Island Shores,5761 Rabbit Run Rd,Hector,NY,14841,42.51224,-76.88277,3,398.6862,268.7871
490591,RIT Inn & Conference Center,5257 W Henrietta Rd,Henrietta,NY,14467,43.04926,-77.65818,3.5,127,126
228038,Red Roof Inn Rochester - Henrietta,4820 W Henrietta Road,Henrietta,NY,14467,43.05779,-77.65253,2,65.46,60.46
218223,Days Inn Henrietta/Rochester Area,4853 W Henrietta Rd,Henrietta,NY,14467,43.05745,-77.65272,2,70.12,29.74
185171,Microtel Inn by Wyndham Henrietta/Rochester,905 Lehigh Station Road,Henrietta,NY,14467,43.05871,-77.65171,2,50.41,38.41
175406,"Country Inn & Suites by Carlson Rochester - Henrietta, NY",4635 W Henrietta Road,Henrietta,NY,14467,43.06074,-77.65089,3,194.1981,109.3909
217822,Super 8 Henrietta/Rochester Area,1000 Lehigh Station Rd,Henrietta,NY,14467,43.05878,-77.64458,2,63.32,51.32
117716,Fairfield Inn Rochester South,4695 W Henrietta Rd,Henrietta,NY,14467,43.05945,-77.65161,2.5,124.43,105.43
248796,Bellinger Rose Bed & Breakfast,611 W German St,Herkimer,NY,13350,43.02757,-74.99687,2.5,189.0099,149.0078
477461,Red Roof Inn & Suites Herkimer,&nbsp;100 Marginal Rd.,Herkimer,NY,13350,43.01895,-74.99162,2,144.9981,76.9943
127534,Econo Lodge Hicksville,429 Duffy Ave,Hicksville,NY,11801,40.75738,-73.54963,2,100.38,99.38
121613,Long Island - Days Inn Hicksville,828 S Oyster Bay Rd/I-495,Hicksville,NY,11801,40.76184,-73.50024,2,109.21,84.21
390189,Americas Best Value Inn,3497 Us Highway 9w,Highland,NY,12528,41.72916,-73.96191,2,80.46,79.46
397277,Atlas Motor Lodge,125 Tillson Avenue EXT,Highland,NY,12528,41.71068,-73.96524,2,75.36,67.36
215099,Super 8 Highland NY,3423 US Highway 9W,Highland,NY,12528,41.73971,-73.96314,2,60.42,59.42
604820,Stonegate Bed and Breakfast,34 North Road,Highland,NY,12528,41.72659,-73.96506,3.5,160.21,140.21
251555,FairBridge Inn & Suites at West Point,17 Main St,Highland Falls,NY,10928,41.35565,-73.9724,2,85.9834,84.9834
192196,Holiday Inn Express West Point,1106 Route 9 W,Highland Falls,NY,10922,41.33936,-73.97763,2.5,174.47,131.47
340754,Overlook Lodge at Bear Mountain,55 Hessian Drive,Highland Falls,NY,10911,41.31952,-73.99168,2.5,130,129
484191,Akwesasne Mohawk Casino Resort,873 State Route 37,Hogansburg,NY,13655,44.96785,-74.64659,3.5,290,289
200726,Ramada Plaza Holtsville Long Island,1730 N Ocean Ave,Holtsville,NY,11742,40.82096,-73.02007,3.5,269.48,101.48
220289,Residence Inn by Marriott Long Island Holtsville,25 Middle Ave,Holtsville,NY,11742,40.81639,-73.05612,3,159.0185,149.018
254147,Greenwoods Bed & Breakfast Inn,8136 Quayle Rd,Honeoye,NY,14471,42.80363,-77.48402,3,179.1,139.1
262785,The Bykenhulle House,21 Bykenhulle Rd,Hopewell Junction,NY,12533,41.58261,-73.7704,3.5,218.6489,168.729
142919,Days Inn,Route 36 and Webb Crossing,Hornell,NY,14843,42.36594,-77.67342,2,79.8554,67.8756
133324,Econo Lodge Hornell,7462 Seneca Rd N,Hornell,NY,14843,42.36184,-77.66534,2,61.43,60.43
111540,Best Western Maple City Inn,1 Canisteo Sq,Hornell,NY,14843,42.32312,-77.66186,2.5,141.32,111.35
194129,Country Inn & Suites By Carlson Big Flats (Elmira),105 E Mall Rd,Horseheads,NY,14845,42.16121,-76.86564,3,99.46,89.46
107891,Holiday Inn Express Elmira - Horseheads,2666 Corning Rd,Horseheads,NY,14845,42.16155,-76.83878,3,129.41,83.41
173768,Hilton Garden Inn Elmira/Corning,35 Arnot Rd,Horseheads,NY,14845,42.16188,-76.87498,3,149.44,93.44
492730,Rodeway Inn Marshall Manor,3527 Watkins Rd,Horseheads,NY,14845,42.21712,-76.84882,2,98.99,97.99
337743,Hampton Inn Elmira-Horseheads,51 Arnot Road,Horseheads,NY,14845,42.19733,-76.81042,2.5,107.33,89.33
390688,Candlewood Suites Elmira Horseheads,198 Colonial Drive,Horseheads,NY,14845,42.16115,-76.86553,2.5,93.48,79.48
202829,Horseheads Knights Inn,2707 Westinghouse Rd,Horseheads,NY,14845,42.16533,-76.84007,1.5,61.44,60.44
258095,Budget Inn Horseheads,4133 Route 17,Horseheads,NY,14845,42.15573,-76.81638,2,69.34,55.34
570518,Courtyard by Marriott Elmira Horseheads,202 Colonial Drive,Horseheads,NY,14845,42.1614,-76.86635,3,110.41,109.41
385631,Surfside Motel,164-33 CROSSBAY BLVD,Howard Beach,NY,11414,40.64987,-73.83745,2,214.43,128.43
648275,The Sedgwick House,7760 Main Street,Hunter,NY,12242,42.20892,-74.21036,2.5,121.4934,120.4934
243660,The Fairlawn Inn,7872 Main St,Hunter,NY,12442,42.21103,-74.21548,3,229,169
218414,Oheka Castle Hotel & Estate,135 W Gate Dr,Huntington,NY,11743,40.82649,-73.44929,3.5,325.0175,295.0159
337597,Whitman Motor Lodge,295 E Jericho Turnpike,Huntington Station,NY,11746,40.82946,-73.39906,2,150.1192,109.0231
170535,Rodeway Inn,270 W Jericho Turnpike,Huntington Station,NY,11746,40.82857,-73.41942,2,104.0856,89.0733
239820,Quality Inn,4142 Albany Post Rd,Hyde Park,NY,12538,41.77417,-73.93068,2.5,110.39,105.39
683008,Journey Inn Bed & Breakfast,1 Sherwood Place,Hyde Park,NY,12538,41.79496,-73.93771,4,161.21,160.21
107179,Hampton Inn Long Island/Islandia,1600 Veterans Memorial Hwy,Islandia,NY,11749,40.8077,-73.18383,2.5,154.1,139.09
114272,The Statler Hotel at Cornell University,130 Statler Dr,Ithaca,NY,14853,42.44662,-76.48185,4,320.37,255.37
107897,Ramada Ithaca Hotel and Conference Center,2310 N Triphammer Rd,Ithaca,NY,14850,42.4833,-76.48535,2.5,150.42,93.46
434660,Fairfield Inn & Suites Ithaca,359 Elmira Rd,Ithaca,NY,14850,42.4227,-76.51626,2.5,149.38,118.38
133407,Quality Inn,356 Elmira Rd,Ithaca,NY,14850,42.42308,-76.51589,2.5,114.35,109.35
113411,La Tourelle,1150 Danby Rd 96B,Ithaca,NY,14850,42.40165,-76.50101,3.5,150.38,120.38
209685,Best Western University Inn,1020 Ellis Hollow Rd,Ithaca,NY,14850,42.43571,-76.46178,2.5,170.41,119.41
252501,Homewood Suites by Hilton Ithaca,36 Cinema Dr,Ithaca,NY,14850,42.47935,-76.47834,3,454.45,152.45
252457,Meadow Court Inn,529 S Meadow St,Ithaca,NY,14850,42.43474,-76.5081,2,84.37,69.37
218321,Hampton Inn Ithaca,337 Elmira Rd,Ithaca,NY,14850,42.42481,-76.51378,2.5,159.47,134.47
142924,Super 8 Ithaca,400 S Meadow St,Ithaca,NY,14850,42.43639,-76.50814,2,105.45,77.45
192373,Courtyard by Marriott Ithaca Airport/University,29 Thornwood Dr,Ithaca,NY,14850,42.48481,-76.46496,3,163.6183,138.6874
118596,Econo Lodge,2303 N Triphammer Rd,Ithaca,NY,14850,42.48306,-76.48516,2,139.49,129.49
214738,Rodeway Inn And Suites,654 Elmira Rd,Ithaca,NY,14850,42.41071,-76.53842,2,164.99,95.09
265245,Country Inn & Suites By Carlson of Ithaca,1100 Danby Rd,Ithaca,NY,14850,42.40795,-76.50299,3,193.44,134.44
137742,Trip Hotel Ithaca,1 Sheraton Dr,Ithaca,NY,14850,42.47826,-76.4805,2,140.3,129.95
231434,Hilton Garden Inn Ithaca,130 E. Seneca Street,Ithaca,NY,14850,42.44044,-76.4975,3,253.9007,178.936
606494,Firelight Camps,1150 Danby Road,Ithaca,NY,14850,42.40185,-76.50291,2.5,184.41,183.41
608337,Bunny Trail Guest House,853 Coddington Road,Ithaca,NY,14850,42.40176,-76.46021,3.5,243,242
592803,Ithaca Marriott Downtown on the Commons,120 S Aurora St,Ithaca,NY,14850,42.43908,-76.49538,3.5,234.6032,174.4487
635200,Holiday Inn Express & Suites Ithaca,371 Elmira Road,Ithaca,NY,14850,42.42116,-76.51809,3,142.33,137.33
223947,Hilton Garden Inn Queens/JFK Airport,14818 134th St,Jamaica,NY,11430,40.66577,-73.80585,3,179.0687,143.7608
211069,Best Western JFK Airport Hotel,14425 153rd Ln,Jamaica,NY,11434,40.6656,-73.78492,2.5,209.0109,170.0594
197453,Hampton Inn JFK Airport,144-10 135th Avenue,Jamaica,NY,11436,40.66789,-73.79471,3,195.0094,194.0094
256601,Lexington Inn JFK Airport,138 05 Jamaica Ave,Jamaica,NY,11435,40.7025,-73.81506,2.5,151.37,150.37
271672,Ramada Jamaica/Queens,164-40 Hillside Ave,Jamaica,NY,11432,40.7092,-73.79764,2.5,415.17,414.17
440185,Howard Johnson Jamaica NY Near AirTrain JFK,139-09 Archer Ave.,Jamaica,NY,11435,40.69947,-73.81103,2.5,169.99,109.99
206848,Holiday Inn Express Kennedy Airport,153-70 S Conduit Ave,Jamaica,NY,11434,40.66639,-73.78475,2.5,214.44,157.44
407437,Sleep Inn JFK Airport Rockaway Blvd,153-75 Rockaway Blvd,Jamaica,NY,11434,40.6685,-73.78148,2,146.0082,145.0082
275408,Sheraton JFK Airport Hotel,132-26 S Conduit Ave,Jamaica,NY,11430,40.66619,-73.80683,3.5,196.8031,173.4313
163814,Radisson Hotel JFK Airport,135-30 140th Street,Jamaica,NY,11436,40.6679,-73.79845,3.5,240.0919,195.0571
193716,Courtyard by Marriott New York JFK Airport,145-11 N Conduit Ave,Jamaica,NY,11436,40.66743,-73.79386,3,175.3,174.3
202199,Fairfield Inn by Marriott JFK Airport,156 08 Rockaway Blvd,Jamaica,NY,11434,40.66667,-73.77991,3,233.9109,148.9574
107234,Hilton New York JFK Airport,144-02 135th Avenue,Jamaica,NY,11436,40.66833,-73.7963,3.5,419.0217,279.0145
218221,Best Western Jamaica Inn,8707 Van Wyck Expy,Jamaica,NY,11435,40.70574,-73.81753,2.5,140.33,130.33
436969,Holiday Inn New York JFK Airport Area,154-71 Brookville Boulevard Rosedal,Jamaica,NY,11422,40.63995,-73.74374,3,204.0099,169.0088
379236,Sleep Inn JFK Airport,177-08 Liberty Ave,Jamaica,NY,11433,40.70545,-73.78258,2,148.6222,117.0964
231628,Days Inn JFK Airport,144-26 153rd Court,Jamaica,NY,11434,40.66563,-73.78404,2,119.1554,118.1554
226886,Knights Inn JFK,139-01 Jamaica Ave,Jamaica,NY,11435,40.70245,-73.81246,2,162.059,131.6716
112993,Crowne Plaza JFK Airport New York City,138-10 135th Ave,Jamaica,NY,11436,40.6678,-73.79943,3.5,219.0114,170.1086
198226,Howard Johnson Inn Jamaica JFK Airport NYC,153-95 Rockaway Blvd,Jamaica,NY,11434,40.66839,-73.78138,2,228.4597,96.673
414787,Garden Inn & Suites,151-20 Baisley Blvd,Jamaica,NY,11434,40.66773,-73.78682,2,100,99
200950,JFK Inn,154-10 S Conduit Ave,Jamaica,NY,11434,40.66659,-73.78221,2,159,139
482099,Comfort Inn,89-34 162nd Street,Jamaica,NY,11432,40.70573,-73.79857,2.5,169.39,149.39
431319,Super 8 Jamaica North Conduit,15167 N Conduit Ave,Jamaica,NY,11434,40.66737,-73.78337,2,129.34,109.34
351674,Jets Motor Inn,13906 Queens Blvd,Jamaica,NY,11435,40.70631,-73.81685,2,222.3136,141.7133
496002,Rodeway Inn Near JFK Airport,136-05 Cranston Street,Jamaica,NY,11434,40.66813,-73.78336,2,135.0063,134.0063
437553,Par Central Motor Inn,8285 Parsons Boulevard,Jamaica,NY,11432,40.71611,-73.80788,1.5,355.4,354.4
577480,Days Inn & Suites Jamaica JFK Airport,9565 Tuckerton St,Jamaica,NY,11433-1043,40.6987,-73.80108,2.5,149.9032,101.7584
579396,JFK Bed & Breakfast Guesthouse,12804 143rd Street,Jamaica,NY,11436,40.67222,-73.79577,2.5,99.18,69.13
606285,Sleep Inn near JFK AirTrain,140-17 Queens Blvd,Jamaica,NY,11435,40.70365,-73.81504,2,149.2564,139.2392
598464,Clarion Inn JFK Airport,147-05 Guy R Brewer Boulevard,Jamaica,NY,11434,40.66002,-73.76792,2.5,149.9053,129.7835
114812,Comfort Inn Jamestown - Falconer,2800 North Main Street EXT,Jamestown,NY,14701,42.11958,-79.24087,2.5,104.9859,94.9955
240762,Hampton Inn and Suites Jamestown,4 W Oak Hill Rd,Jamestown,NY,14701,42.11678,-79.24091,2.5,129.41,98.41
476468,Best Western Plus Downtown Jamestown,200 W 3rd St,Jamestown,NY,14701,42.09584,-79.24434,2.5,124.997,89.9945
248005,Americas Best Value Inn- Jamestown/ West Ellicot,620 Fairmount Avenue,Jamestown,NY,14701,42.0972,-79.27478,2,66.0041,65.0041
498674,Holiday Inn Express & Suites Jamestown,2811 North Main Street,Jamestown,NY,14701,42.11954,-79.24092,2.5,129.0068,99.0052
436973,The Biggest Loser Resort Niagara,1083 Pit Road,Java Center,NY,14082,42.65853,-78.40074,3.5,724.84,703.13
204042,Hampton Inn Jericho - Westbury,120 Jericho Turnpike,Jericho,NY,11753,40.78148,-73.55762,2,150,149
223054,Meadowbrook Motor Lodge,440 Jericho Turnpike,Jericho,NY,11753,40.79539,-73.53487,2,93.43,91.43
238352,Inn at Jericho,101 Jericho Turnpike,Jericho,NY,11753,40.77966,-73.56054,2,110,85
127176,Red Roof Inn Binghamton - Johnson City,590 Fairview Street,Johnson City,NY,13790,42.128,-75.97048,2,73.0883,48.722
227167,Traditions at the Glen Resort and Hotel - Binghamton,4101 Watson Blvd,Johnson City,NY,13790,42.12382,-75.99631,3.5,149.0078,109.0058
139433,Hampton Inn Johnson City,630 Field St,Johnson City,NY,13790,42.12096,-75.9754,2.5,119.45,109.45
495570,Best Western Plus Of Johnson City,569 Harry L Dr,Johnson City,NY,13790,42.12537,-75.97178,2.5,99.38,76.38
233865,La Quinta Inn Binghamton - Johnson City,581 Harry L Dr,Johnson City,NY,13790,42.12452,-75.97031,2.5,95.33,85.33
262715,Microtel Inn & Suites by Wyndham Johnstown,136 N Comrie Ave,Johnstown,NY,12095,43.01037,-74.36023,2,108.0137,76.0085
142918,Super 8 Johnstown Gloversville Area,301 N Comrie Ave,Johnstown,NY,12095,43.02171,-74.3617,2,106.99,63.74
107938,Holiday Inn Johnstown-Gloversville,308 N Comrie Ave,Johnstown,NY,12095,43.02333,-74.36085,3,139.966,104.9666
201785,Super 8 Kenmore/Buffalo/Niagara Falls,1288 Sheridan Dr,Kenmore,NY,14217,42.98088,-78.88682,2,116.93,44.99
451873,Pinegrove Family Dude Ranch,30 Cherrytown Road,Kerhonkson,NY,12466,41.79336,-74.31022,3,398.0208,338.0177
538653,Hudson Valley Resort And Spa,400 Granite Rd,Kerhonkson,NY,12446,41.76659,-74.26109,3,226.24,107.67
237432,Courtyard by Marriott Kingston,500 Frank Sottile Blvd,Kingston,NY,12401,41.95997,-73.98306,3,164.46,124.46
107939,Best Western Plus Kingston Hotel And Conference Center,503 Washington Ave,Kingston,NY,12401,41.93818,-74.0266,3,249.43,129.43
275788,Rodeway Inn Skytop,239 Forest Hill Dr,Kingston,NY,12401,41.95199,-74.04192,2,75.4,65.4
254183,Hampton Inn Kingston,1307 Ulster Ave,Kingston,NY,12401,41.96678,-73.98917,2.5,149.38,116.38
204980,Super 8 Kingston,487 Washington Ave,Kingston,NY,12401,41.93804,-74.02665,2,162.38,78.38
231519,Quality Inn & Suites,114 State Route 28,Kingston,NY,12401,41.94694,-74.03157,2.5,99.09,99
612849,Residence Inn by Marriott Kingston,800 Frank Sottile Boulevard,Kingston,NY,12401,41.96989,-73.98339,3,159.08,129.01
261592,Best Western Plus the Inn of Lackawanna,2500 Hamburg Turnpike,Lackawanna,NY,14218,42.81768,-78.84687,2.5,140.45,99.45
107164,Holiday Inn Lake George Turf,2223 Canada St,Lake George,NY,12845,43.41503,-73.71253,3.5,179,102
228613,The Georgian Lakeside Resort,384 Canada Street,Lake George,NY,12845,43.42927,-73.71183,2.5,290.15,212.55
253309,Wingate by Wyndham Lake George,4054 State Route 9L,Lake George,NY,12845,43.41047,-73.70869,2.5,179.36,85.36
412848,Villager Motor Inn,99 Canada St,Lake George,NY,12845,43.42175,-73.71424,2,70.33,60.33
252502,Comfort Suites Lake George,1533 State Route 9,Lake George,NY,12845,43.3715,-73.69799,2.5,160.3,150.3
204933,Super 8 Lake George/Downtown,2159 Canada St,Lake George,NY,12845,43.41099,-73.71123,2,82.49,64.49
119135,Clarion Inn & Suites at the Outlets of Lake George,1454 State Route 9,Lake George,NY,12845,43.36631,-73.69951,2.5,133.32,83.32
242688,Hampton Inn & Suites Lake George,2133 Route 9,Lake George,NY,12845,43.40881,-73.71082,2.5,144.48,124
142003,Econo Lodge,1449 State Route 9,Lake George,NY,12845,43.36598,-73.69972,2,74.42,69.42
176692,Best Western of Lake George,2452 State Route 9N,Lake George,NY,12845,43.40429,-73.71053,2.5,237.95,101.49
213949,Fort William Henry Hotel and Conference Center,48 Canada Street,Lake George,NY,12845,43.41998,-73.71401,3,157.35,91.35
126407,Travelodge Lake George,2011 State Route 9,Lake George,NY,12845,43.40431,-73.70828,2,159,149
162529,Tahoe Resort on Lake George,2998 Lake Shore Dr,Lake George,NY,12845,43.43707,-73.70616,2,260.24,149.1
213482,Roaring Brook Ranch Resort & Conference Center,Route 9N South,Lake George,NY,12845,43.39467,-73.72757,2.5,124,120.47
111306,Rodeway Inn Springhills Lake George,2447 State Route 9 N,Lake George,NY,12845,43.40435,-73.71061,2,99.4291,55.679
385578,Lake View Inn,5 Canada St,Lake George,NY,12845,43.41708,-73.71312,2,299,109
377952,The Motel Montreal,3 Lake Avenue,Lake George,NY,12845,43.43102,-73.71174,2,298.9203,85.0285
351733,Lake George Diamond Cove,3648 Lake Shore Dr,Lake George,NY,12845,43.47739,-73.68768,3,355.05,354.05
124324,Tiki Resort,2 Canada Street,Lake George,NY,12845,43.41534,-73.71252,2.5,342.39,184.54
242778,Econo Lodge Downtown Lake George,439 Canada St,Lake George,NY,12845,43.43151,-73.71262,2,710.45,89.45
152233,Quality Inn Lake George,57 Canada St,Lake George,NY,12845,43.42011,-73.71412,2.5,100.19,99.95
204848,Super 8 Lake George/Warrensburg Area,"Prosser Rd, 3619 State Route 9",Lake George,NY,12845,43.48718,-73.75893,2,85.3492,77.317
259511,Americas Best Value Inn & Suites,435 Canada Street,Lake George,NY,12845,43.43099,-73.71252,2.5,189,79
461405,Golden Sands Resort On Lake George,3654 Lake Shore Drive,Lake George,NY,12845,43.47729,-73.68766,2,220.0373,180.0228
617870,Courtyard by Marriott Lake George,365 Canada Street,Lake George,NY,12845,43.42742,-73.71284,3,289.0251,116.0066
637045,Sundowner on Lake George,420 Canada Street,Lake George,NY,12845,43.43036,-73.71079,2.5,116.45,115.45
271165,High Peaks Resort,2384 Saranac Ave,Lake Placid,NY,12946,44.29174,-73.98595,4,255.38,237.38
435217,Hampton Inn & Suites Lake Placid,801 Mirror Lake Dr,Lake Placid,NY,12946,44.28339,-73.98125,2.5,329.34,179.34
225646,Spruce Lodge Bed & Breakfast & Guest Cottage,6034 Sentinel Road,Lake Placid,NY,12946,44.27466,-73.98084,2,85.41,65.41
127539,Econo Lodge Lake Placid,5828 Cascade Rd,Lake Placid,NY,12946,44.2694,-73.97557,2,80.37,70.37
112979,Lake House,1 Mirror Lake Dr.,Lake Placid,NY,12946,44.29172,-73.98549,3.5,127.51,113.35
222176,Crowne Plaza Lake Placid,101 Olympic Dr,Lake Placid,NY,12946,44.28605,-73.98698,3.5,259.32,108.32
109246,Quality Inn on Lake Placid,2125 Saranac Ave,Lake Placid,NY,12946,44.29497,-73.99695,2.5,80.41,79.41
252535,Courtyard by Marriott Lake Placid,5920 Cascade Rd,Lake Placid,NY,12946,44.27103,-73.97861,3,268.9055,248.9301
228794,Lake Placid Summit Hotel / Resort and Suites,2375 Saranac Avenue,Lake Placid,NY,12946,44.29178,-73.98605,2,195.49,144.49
203832,"Hotel North Woods, an Ascend Hotel Collection Member",2520 Main Street,Lake Placid,NY,12946,44.28739,-73.98526,3,104.45,84.45
307620,The Pines Inn Lake Placid,2302 Saranac Ave,Lake Placid,NY,12946,44.29271,-73.9892,3,241.38,240.38
235192,The Whiteface Lodge,7 Whiteface Inn Ln,Lake Placid,NY,12946,44.29686,-74.00878,4.5,474.29,398.84
487843,Mirror Lake Inn Resort & Spa,77 Mirror Lake Drive,Lake Placid,NY,12946,44.29391,-73.98219,4,775.22,299.22
258078,Best Western Adirondack Inn,2625 Main Street,Lake Placid,NY,12946,44.28412,-73.98434,2.5,265.11,123.4
309396,Rodeway Inn Lakeville,6001 Big Tree Rd,Lakeville,NY,14480,42.83101,-77.69273,2,75.33,74.33
271124,Rogues' Harbor Inn,2079 East Shore Drive,Lansing,NY,14882,42.53679,-76.50602,3,153.44,120.36
139236,Hilton Garden Inn Albany Airport,800 Albany Shaker Rd,Latham,NY,12211,42.74722,-73.81872,3,160.46,159.46
125795,Comfort Inn Latham - Albany North,981 New Loudon Rd (Route 9),Latham,NY,12047,42.76911,-73.7538,2.5,119.39,109
241786,La Quinta Inn & Suites Latham Albany Airport,833 New Loudon Road,Latham,NY,12110,42.75108,-73.7599,2.5,149.33,144.33
211326,"The Century House, an Ascend Hotel Collection Member",997 New Loudon Rd,Latham,NY,12110,42.7707,-73.75353,3,130.43,129.43
112503,Days Inn Albany Airport,20 Airport Park Blvd,Latham,NY,12110,42.75393,-73.81501,2,110.39,68.39
201370,Super 8 Latham / Albany Troy Area,681 Troy Schenectady Road,Latham,NY,12110,42.75563,-73.77467,2,99.99,59.49
185039,Microtel Inn by Wyndham Albany Airport,7 Rensselaer Ave,Latham,NY,12110,42.7534,-73.77196,2,100.47,72.47
145281,Hotel Indigo Albany Latham,254 Wolf Road,Latham,NY,12110,42.72931,-73.79557,3.5,209.47,150.47
228495,Hampton Inn & Suites Albany Airport,45 British American Blvd,Latham,NY,12110,42.76887,-73.82033,2.5,119.0277,109.0294
252463,Golden Circle Inn,706 New Loudon Road,Latham,NY,12110,42.73938,-73.76204,2,112.17,59.18
252472,Travelodge Inn and Suites Latham,831 New Loudon Rd,Latham,NY,12110,42.75057,-73.76006,2,149.42,89.42
120737,Residence Inn by Marriott Albany Airport,1 Residence Inn Dr,Latham,NY,12110,42.76499,-73.81068,3,169.09,119.07
442935,Albany Airport Hotel,954 New Loudon Road,Latham,NY,12110,42.76579,-73.75481,2.5,61.44,60.44
271158,Holiday Inn Express Hotel and Suites Latham,400 Old Loudon Rd,Latham,NY,12110,42.76166,-73.7539,3,169.17,130.17
108831,Quality Inn & Suites Albany Airport,611 Troy-Schenectady Rd.,Latham,NY,12110-2505,42.75447,-73.77033,2.5,145.46,95.46
600474,TownePlace Suites Latham Albany Airport,5 Forts Ferry Road,Latham,NY,12110,42.75578,-73.77364,3,179.06,101.0658
423158,Brookside Inn At Laurens,99 Main St,Laurens,NY,13796,42.53246,-75.08626,3,289.04,209.04
412669,Five Towns Inn - JFK Airport,655 Rockaway Tpke,Lawrence,NY,11559,40.63287,-73.73909,2,170.48,169.48
533847,Niagara Crossing Hotel & Spa,100 Center Street,Lewiston,NY,14092,43.1734,-79.04782,3.5,219.15,179.15
594600,AARTPARK HOTEL INN at LEWISTON,280 Portage Road,Lewiston,NY,14092,43.17002,-79.03235,2,89.001,69.0043
680157,Unique 1950's Retro-style House,230 N Water Street,Lewiston,NY,14092,43.17529,-79.0483,3,221,220
207268,Knights Inn Liberty,2067 Route 52,Liberty,NY,12754,41.78764,-74.72906,1.5,71.46,70.46
108045,Days Inn Liberty,52 Sullivan Ave,Liberty,NY,12754,41.78281,-74.72879,2,111.38,110.38
327727,North Fork Bed and Breakfast/Gifts,219 Baker Road,Lisbon,NY,13658,44.71108,-75.27292,3,114.8077,94.9484
437455,Canal Side Inn,395 Canal Place,Little Falls,NY,13365,43.04063,-74.85883,2.5,135.37,125.37
209164,Travelodge Little Falls,20 Albany Street,Little Falls,NY,13365,43.0424,-74.85929,2,164.47,79.47
427636,Overlook Mansion,55 Douglas Street,Little Falls,NY,13365,43.0487,-74.8594,3,120.0063,119.0063
351697,Staybridge Suites Liverpool Syra,439 Electronics Pkwy,Liverpool,NY,13088,43.10242,-76.18709,3,166.17,121
127532,Quality Inn near Destiny USA,401 7th North St,Liverpool,NY,13088,43.09085,-76.16933,2.5,91.4,90.4
260290,Hampton Inn Syracuse Clay,3948 State Route 31,Liverpool,NY,13090,43.18411,-76.23852,2.5,179.1474,151.1743
169253,Maplewood Suites Extended Stay,400 7th North St,Liverpool,NY,13088,43.09117,-76.16954,3.5,298.35,278.35
128177,Homewood Syracuse/Liverpool,275 Elwood Davis Rd,Liverpool,NY,13088,43.09829,-76.17773,3,309.43,139.43
216556,Best Western Plus Liverpool - Syracuse Inn & Suites,136 Transistor Pkwy,Liverpool,NY,13088,43.10558,-76.18796,2.5,130.33,102.33
110131,Hampton Inn Syracuse - North (Airport Area),417 7th North St,Liverpool,NY,13088,43.09175,-76.17072,2.5,140.42,139.42
200365,Super 8 Liverpool/Clay/Syracuse Area,7360 Oswego Rd,Liverpool,NY,13090,43.12704,-76.21819,2,108.7493,47.4424
203865,Super 8 Liverpool/Syracuse Area,421 7th North Street,Liverpool,NY,13088,43.09201,-76.17109,2,56.2,47.7
202740,Knights Inn Syracuse/Liverpool,430 Electronics Pkwy,Liverpool,NY,13088,43.10042,-76.18876,2,65.44,42.44
149427,Holiday Inn Syracuse-Liverpool-Exit 37,441 Electronics Pkwy,Liverpool,NY,13088,43.10151,-76.18763,3,144.31,124.31
138830,Fairfield Inn by Marriott Syracuse Clay,3979 Route 31,Liverpool,NY,13090,43.18703,-76.23519,2.5,154.42,118.42
121724,Quality Inn,551 S Transit St,Lockport,NY,14094,43.15261,-78.69687,2.5,80.39,70.39
208675,Best Western Plus Lockport Hotel,515 S Transit Street,Lockport,NY,14094,43.15318,-78.6969,2.5,85.08,84.99
612730,Hampton Inn Lockport - Buffalo,6082 Transit Road,Lockport,NY,14094,43.12964,-78.69689,2.5,220.19,210.19
369925,The Fox and the Grapes Bed & Breakfast,9496 State Route 414,Lodi,NY,14860,42.56433,-76.86162,3.5,206.31,205.31
311070,Allegria Hotel,80 West Broadway,Long Beach,NY,11561,40.5846,-73.66675,4,289.3,139.3
467414,Long Beach Hotel,405 East Broadway,Long Beach,NY,11561,40.58489,-73.65214,2,360.08,129.99
323646,Ramada Long Island City,3830 Crescent St,Long Island City,NY,11101,40.75511,-73.93647,2,114.1134,113.1134
367796,Hotel Vetiver,29-11 39th Avenue,Long Island City,NY,11101,40.75329,-73.93401,3.5,120.25,80.25
326948,Best Western Plaza Hotel,3934 21st Street,Long Island City,NY,11101,40.75572,-73.94079,2.5,240.0234,165.02
323087,"Country Inn & Suites By Carlson, New York City in Queens, NY",4034 Crescent St,Long Island City,NY,11101,40.75264,-73.93873,3,132.18,110.68
400299,Wyndham Garden Long Island City Manhattan View,44-29 9th Street,Long Island City,NY,11101,40.74982,-73.95201,3.5,195,139.51
408393,Fairfield Inn & Suites New York Queens/Queensboro Bridge,2927 40th Rd,Long Island City,NY,11101,40.75136,-73.9352,3,209.33,179.33
422980,Nesva Hotel,39-12 29th Street,Long Island City,NY,11101,40.7532,-73.93476,2.5,217,158.1062
358935,Four Points by Sheraton Long Island City Queensboro Bridge,27-05 39th Avenue,Long Island City,NY,11101,40.75436,-73.93601,3,362.0559,177.3249
384957,Z NYC Hotel,11-01 43rd Avenue,Long Island City,NY,11101,40.75183,-73.94808,4,325,265
231115,La Quinta Inn Queens (New York City),37-18 Queens Blvd,Long Island City,NY,11101,40.74402,-73.92722,2.5,151.32,150.32
202360,City View Inn,3317 Greenpoint Ave,Long Island City,NY,11101,40.73588,-73.93392,2,149.38,99.38
258330,Quality Inn,30-03 40th Ave,Long Island City,NY,11101,40.75188,-73.93448,2.5,126.49,125.49
241871,Comfort Inn Long Island City,42-24  Crescent St,Long Island City,NY,11101,40.74994,-73.9412,2.5,101.39,100.39
265276,Fairfield Inn New York Long Island City/Manhattan View,52-34 Van Dam Street,Long Island City,NY,11101,40.73627,-73.93626,2.5,189.2,159.01
256047,Days Inn Long Island City,31-36 Queens Blvd,Long Island City,NY,11101,40.74519,-73.93364,2,189.31,149.31
274232,Holiday Inn - Long Island City - Manhattan View,39-05 29th Street,Long Island City,NY,11101,40.75336,-73.93461,3,224.19,109.13
195158,Red Roof Inn Queens,3805 Hunters Point Ave.,Long Island City,NY,11101,40.73687,-73.92845,2.5,89.47,69.47
324875,Sleep Inn,38-71 13th St,Long Island City,NY,11101,40.75613,-73.94164,2,98.296,97.296
265134,Ravel Hotel,8-08 Queens Plaza South,Long Island City,NY,11101,40.75409,-73.94906,4,340.2697,290.2286
449009,Home2 Suites by Hilton NY Long Island City/Manhattan View,39-06 30th St.,Long Island City,NY,11101,40.75312,-73.9337,2.5,279.0433,199.0249
446403,The Paper Factory Hotel,37-06 36th street,Long Island City,NY,11101,40.75272,-73.92742,4,379.0583,319.0472
476997,Howard Johnson Long Island City,38-61 12th Street,Long Island City,NY,11101,40.75667,-73.94224,2,208.1,159.89
480987,Hilton Garden Inn New York Long Island City,29-21 41st Avenue,Long Island City,NY,11101,40.75022,-73.93669,3,199.36,179.36
482976,The Local,13-02 44th Avenue,Long Island City,NY,11101,40.74969,-73.94762,2,140.45,139.45
486516,The Boro Hotel,38-28 27th Street,Long Island City,NY,11101,40.75455,-73.93583,4.5,209.41,149.41
582226,LIC Hotel,44-04 21st Street,Long Island City,NY,11101,40.74938,-73.94678,3.5,129.2,129.1
605317,"The Vue Hotel, an Ascend Hotel Collection Member",40-47 22nd Street,Long Island City,NY,11101,40.75364,-73.94123,2.5,299.04,249.0377
571571,Courtyard Long Island City/New York Manhattan View,29-15 Queens Plaza North,Long Island City,NY,11101,40.74985,-73.93768,3,344,224
645462,Aloft Long Island City - Manhattan View,27-45 Jackson Ave,Long Island City,NY,11101,40.74844,-73.93984,3,401.21,179.21
644932,Motel 6 Long Island City NY,2632 Skillman Avenue,Long Island City,NY,11101,40.74402,-73.9411,2,138.46,108.46
264890,Holiday Inn Express Lynbrook,1 Sunrise Hwy,Lynbrook,NY,11563,40.65677,-73.6574,2.5,310.0328,176.7218
493301,Capri Lynbrook Motor Inn,5 Freer Street,Lynbrook,NY,11563,40.6562,-73.68357,2,150.0278,102.0147
207035,Red Roof Inn PLUS+ & Suites Malone,42 Finney Blvd,Malone,NY,12953-1708,44.8474,-74.30076,2.5,139.32,90.32
138627,Econo Lodge Malone,227 W Main St,Malone,NY,12953,44.84828,-74.3073,2,85.99,84.99
348074,Holiday Inn Express Hotel & Suites Malone,3351 State Route 11,Malone,NY,12953,44.84775,-74.31616,3,139.31,107.31
216943,Fairfield Inn & Suites by Marriott Saratoga Malta,101 Saratoga Village Blvd,Malta,NY,12020,42.96743,-73.80004,2.5,129.49,98.49
269324,Hyatt Place Saratoga Malta,20 State Farm Pl,Malta,NY,12020,42.9689,-73.80484,3,189.36,171.36
616072,Home2 Suites by Hilton Saratoga/Malta,103 Saratoga Village Boulevard,Malta,NY,12020,42.96734,-73.79978,2.5,188.9248,118.9545
469398,Manchester Inn,4078 Route 96,Manchester,NY,14504,42.97481,-77.22686,2,58.2437,53.391
532950,Travelodge Manhasset,1177 Northern Blvd.,Manhasset,NY,11030,40.79097,-73.70235,2,95.2,79.2
434924,Mountain Treasure Bed and Breakfast,408 County Route 40,Maplecrest,NY,12454,42.27513,-74.19433,3,169.42,139.42
228579,Margaretville Mtn Inn B&B and Village Suites,1478 Margaretville Mtn Road,Margaretville,NY,12455,42.16727,-74.66846,3,150.49,105.49
556992,Saint Huberts Lodge,626 Lattintown Road,Marlboro,NY,12542,41.63596,-73.99374,3.5,850.24,250.21
231257,Comfort Inn & Suites LaGuardia Airport,60-30 Maurice Ave,Maspeth,NY,11378,40.7291,-73.90505,2.5,175,174
264712,Holiday Inn Express Maspeth,59-40 55th Road,Maspeth,NY,11378,40.72667,-73.90725,2.5,224.99,179.99
238930,Best Western Bar Harbour Inn,5080 Sunrise Highway,Massapequa Park,NY,11762,40.67792,-73.4461,2.5,179.49,134.49
142921,Super 8 Massena NY,84 Grove St,Massena,NY,13662,44.92355,-74.88586,2,76.41,75.41
211893,Quality Inn Massena,10 W Orvis St,Massena,NY,13662,44.9304,-74.89308,2.5,112.46,111.46
127631,Econo Lodge Massena,15054 State highway 37,Massena,NY,13662,44.92372,-74.94572,2,100.43,80.43
127540,Days Inn Cortland / McGraw,3775 Us Route 11,McGraw,NY,13101,42.58961,-76.13295,2,109.2,64.2
265738,Fairfield Inn by Marriott Medford Long Island,2695 Route 112,Medford,NY,11763,40.82122,-72.99801,2.5,124.0058,112.0055
111701,Comfort Inn Medford,2695 Route 112,Medford,NY,11763,40.82223,-72.99745,2.5,143.65,135.15
492615,112 Motel,2001 Route 112,Medford,NY,11763,40.80717,-73.00297,2,250,140
123102,Melville Marriott Long Island,1350 Walt Whitman Rd,Melville,NY,11747,40.78403,-73.42245,3.5,230.95,229.95
188819,Extended Stay America - Long Island - Melville,100 Spagnoli Rd,Melville,NY,11747,40.76246,-73.42744,2.5,110.0805,100.0722
124342,Hilton Long Island Huntington,598 Broad Hollow Rd,Melville,NY,11747,40.76366,-73.4235,3.5,245.2017,125.1029
214969,Courtyard by Marriott Middletown,24 Crystal Run Xing,Middletown,NY,10941,41.4465,-74.36478,3,170.01,169.01
256762,Microtel Inn & Suites by Wyndham Middletown,19 Crystal Run Crossing,Middletown,NY,10941,41.44582,-74.36514,2,113.31,79.31
152235,Hampton Inn by Hilton Middletown,20 Crystal Run Crossing,Middletown,NY,10941,41.4465,-74.36478,2.5,148.6492,133.6907
142562,Super 8 Middletown,563 Route 211 E,Middletown,NY,10941,41.46312,-74.37362,2,90.19,66
107900,Holiday Inn Middletown - Goshen,68 Crystal Run Rd,Middletown,NY,10941,41.44724,-74.36112,3,156,155
622322,Home2 Suites by Hilton Middletown,600 Route 211 East,Middletown,NY,10941,41.46308,-74.3689,3,149.17,107.17
229247,Cooperstown Inn and Suites at the Ballpark,4470 State Highway 28,Milford,NY,13807,42.6335,-74.96437,2.5,102.39,89.39
614595,Apple Inn and Suites,3634 State Hwy 28,Milford,NY,13807,42.58004,-74.94804,2.5,139.42,129.92
228622,Buttermilk Falls Inn,220 North Road,Milton,NY,12547,41.66691,-73.95606,4,400.18,350.18
540898,James Motel,370 State Route 17M,Monroe,NY,10950,41.31548,-74.16783,2.5,85,79.99
198416,Montauk Yacht Club Resort And Marina,32 Star Island Rd,Montauk,NY,11954,41.06883,-71.93334,3,533.2495,339.1041
462612,Montauk Blue Hotel,108 S Emerson Ave,Montauk,NY,11954,41.03265,-71.94413,2,130.42,129.42
443687,Gurney's Montauk Resort & Seawater Spa,290 Old Montauk Highway,Montauk,NY,11954,41.01644,-71.99154,4,441.07,352.06
505950,Haven Montauk,533 Westlake Drive,Montauk,NY,11954,41.07458,-71.94217,2.5,361,360
201372,Super 8 - Montgomery/Maybrook Area,207 Montgomery Rd,Montgomery,NY,12549,41.50755,-74.21417,2,101,75.65
457750,Holiday Inn Express & Suites Montgomery,2105 Route 208,Montgomery,NY,12549,41.51593,-74.20949,2.5,154.1267,109.0898
537839,Borland House Inn,130 Clinton Street,Montgomery,NY,12549,41.52649,-74.23652,3,249.47,125.47
495590,Best Western Monticello,16 Raceway Rd,Monticello,NY,12701,41.66354,-74.70328,2.5,125.41,104.41
235513,Super 8 Monticello NY,290 Broadway,Monticello,NY,12701,41.65164,-74.67395,2,82.45,68.45
127541,Inn at Monticello,392 Broadway,Monticello,NY,12701,41.65443,-74.68306,3.5,64.9586,58.9624
107944,Holiday Inn Mt. Kisco,1 Holiday Inn Dr,Mount Kisco,NY,10549,41.21876,-73.72583,3,159.32,139.32
258185,Allegiance Bed and Breakfast,145 Main Street,Mount Morris,NY,14510,42.72149,-77.87158,2.5,170.44,140.44
565845,Country Inn and Suites By Carlson Mount Morris NY,130 N Main St,Mount Morris,NY,14510,42.73671,-77.88063,3,133.23,89.83
193748,Hampton Inn Nanuet,260 W Route 59,Nanuet,NY,10954,41.10028,-74.02239,2.5,139.43,119.43
217660,Hilton Garden Inn Nanuet,270 W Route 59,Nanuet,NY,10954,41.10046,-74.02271,3,219.35,135.35
133193,DoubleTree by Hilton Hotel Nanuet,425 E Route 59,Nanuet,NY,10954,41.09131,-73.99593,3,284.43,134.43
161297,Days Inn Nanuet Spring Valley,367 W Route 59,Nanuet,NY,10954,41.10248,-74.02796,2,160.44,68.44
195210,Candlewood Suites Nanuet - Rockland County,20 Overlook Blvd,Nanuet,NY,10954,41.10811,-74.02592,2.5,101.49,100.49
266876,Bristol Views Bed and Breakfast,6932 County Rd. 12,Naples,NY,14512,42.68428,-77.37563,3,200.032,145.0444
621898,Monier Manor,154 N Main St,Naples,NY,14512,42.62027,-77.39967,3,161.38,160.38
125836,Days Inn Middletown,4939 Route 17 M,New Hampton,NY,10958,41.40839,-74.41171,2,104.9231,76.4412
406653,Hampton Inn and Suites New Hartford/Utica,201 Woods Park Drive,New Hartford,NY,13323,43.08723,-75.32857,2.5,160.021,159.021
134660,Ramada New Hartford,141 New Hartford St,New Hartford,NY,13413,43.08547,-75.29682,2.5,94.37,72.37
107832,Holiday Inn Utica,1777 Burrstone Rd,New Hartford,NY,13413,43.09483,-75.28512,3,154.0272,119.0171
664982,Homewood Suites by Hilton New Hartford Utica,185 Woods Park Drive,New Hartford,NY,13323,43.09124,-75.33294,3,0,0
675256,TownePlace Suites by Marriott New Hartford,4760 Middle Settlement Road,New Hartford,NY,13492,43.09562,-75.31683,3,184.12,144.12
238663,Americas Best Value Inn-New Paltz,7 Terwilliger Ln,New Paltz,NY,12561-1619,41.74148,-74.06729,2,76.37,75.37
125983,Rodeway Inn & Suites,601 Main Street,New Paltz,NY,12561,41.73957,-74.05008,1.5,90.49,80.49
138573,Econo Lodge New Paltz,530 Main St,New Paltz,NY,12561,41.74017,-74.05381,1.5,79.99,69.99
566360,New Paltz Hostel,145 Main St,New Paltz,NY,12561,41.74745,-74.08204,2,81,80
621725,Hampton Inn by Hilton New Paltz,4 South Putt Corners Road,New Paltz,NY,12561,41.74082,-74.06783,2.5,139.12,107.12
121959,Radisson Hotel New Rochelle,1 Radisson Plz,New Rochelle,NY,10801,40.91442,-73.77819,3,189.33,161.33
171386,Residence Inn By Marriott New Rochelle,35 Le Count Pl,New Rochelle,NY,10801,40.91126,-73.78066,3,179.45,169.45
120182,Days Inn Newburgh Stewart International,915 Union Ave,New Windsor,NY,12553,41.49432,-74.07449,2,134.34,119.34
259047,Homewood Suites Stewart Airport,180 Breunig Rd,New Windsor,NY,12553,41.48618,-74.09702,3,289,194.65
127542,Econo Lodge Near Stewart Inter,310 Windsor Hwy,New Windsor,NY,12553,41.46513,-74.05051,2,96.45,95.45
219370,Dumont NYC-an Affinia hotel,150 E. 34th Street at Lexington Avenue,New York,NY,10016,40.74624,-73.97929,4,349.74,299.24
109277,Park Central New York,870 7th Ave,New York,NY,10019,40.76452,-73.98078,4,191,190
116103,Blakely New York,136 W 55th St,New York,NY,10019,40.76366,-73.97965,4.5,206.46,205.46
415836,Pod 39,145 East 39th Street,New York,NY,10016,40.74929,-73.9767,3,220.0373,130.0206
351449,Sheraton Tribeca New York Hotel,370 Canal Street,New York,NY,10013,40.72102,-74.00418,4,350.18,219.18
343224,Chelsea Savoy Hotel,204 W 23rd Street,New York,NY,10011,40.74422,-73.99596,2,176.41,175.41
326046,"Distrikt Hotel New York City, an Ascend Collection Hotel",342 W 40th St,New York,NY,10018,40.75679,-73.99273,3.5,219.34,129.34
358061,Element New York Times Square West,311 West 39th Street,New York,NY,10018,40.75565,-73.99193,3.5,474.21,299.16
421592,Hyatt Union Square New York,134 Fourth Avenue,New York,NY,10003,40.73347,-73.98989,4,589.0867,543.1791
438922,Hyatt Centric Times Square New York,135 W 45th St,New York,NY,10036,40.75739,-73.98417,4,683.7359,412.9442
172653,"Hudson New York, Central Park",358 W 58th St,New York,NY,10019,40.76836,-73.98476,4,469.08,131.05
125617,Excelsior Hotel,45 W 81st St,New York,NY,10024,40.78295,-73.97385,3.5,448.8286,328.8777
438630,WestHouse New York,201 West 55th Street,New York,NY,10019,40.76442,-73.98144,5,510.49,370.23
124573,DoubleTree Suites by Hilton New York City - Times Square,1568 Broadway,New York,NY,10036,40.75904,-73.98475,4,439.19,259.11
226121,The Westin New York at Times Square,270 W 43rd Street,New York,NY,10036,40.75779,-73.98902,4.5,309.45,304.45
145146,Paramount Times Square,235 West 46th Street,New York,NY,10036,40.75946,-73.98712,4,419.17,182.96
112922,New York Hilton Midtown,1335 Avenue Of The Americas,New York,NY,10019,40.76225,-73.97874,4,899.04,203.16
360465,DoubleTree by Hilton New York City - Financial District,8 Stone St,New York,NY,10004,40.70402,-74.01242,4,449.0811,329.1227
133146,The Franklin Hotel,164 E 87th St,New York,NY,10128,40.77989,-73.9544,3.5,319.35,224.76
424023,Refinery Hotel,63 W 38th St,New York,NY,10018,40.75211,-73.98546,5,439.37,279.37
273736,DoubleTree by Hilton Hotel New York - Times Square South,341 West 36th Street,New York,NY,10018,40.75422,-73.9943,4,409.43,332.43
279075,DoubleTree by Hilton New York City - Chelsea,128 West 29th Street,New York,NY,10001,40.74716,-73.99128,4,249.33,212.33
199889,W New York - Times Square,1567 Broadway At 47th St,New York,NY,10036,40.75936,-73.98512,4.5,616.6,381.61
163823,The Redbury New York,29 East 29th Street,New York,NY,10016,40.74501,-73.98426,4,479.34,229.34
416820,The Westin New York Grand Central,212 East 42nd Street,New York,NY,10017,40.75041,-73.97378,4.5,679.1567,499.1459
131795,"The Roosevelt Hotel, New York City",45 E 45th Street,New York,NY,10017,40.75458,-73.97749,4,359.22,229.06
217460,Hotel St. James,109 W. 45TH ST.,New York,NY,10036,40.75704,-73.98331,2.5,310.23,309.23
332678,Flatiron Hotel,9 West 26th Street,New York,NY,10010,40.74393,-73.98938,4,299.46,199.46
163194,The Gallivant Times Square,234 W 48th St,New York,NY,10036,40.76068,-73.98617,3.5,349.13,199.13
278067,Ace Hotel New York,20 West 29th Street,New York,NY,10001,40.74587,-73.98823,4,1048.983,177.6384
361504,The Pearl New York,233 West 49th Street,New York,NY,10019,40.76127,-73.98565,4,612.9219,264.3803
377242,YOTEL New York at Times Square,570 Tenth Avenue,New York,NY,10036,40.75918,-73.9958,4,429,259
324037,Four Points by Sheraton Midtown-Times Square,326 W 40th Sreet,New York,NY,10018,40.75659,-73.99224,3.5,460.77,286.48
219447,Shelburne NYC-an Affinia hotel,303 Lexington Avenue,New York,NY,10016,40.74848,-73.9782,4,369.08,149.04
439332,Viceroy Central Park New York,120 W 57th St,New York,NY,10019,40.76479,-73.97831,5,779.08,209.27
321582,Staybridge Suites Times Square,340 W 40 Street,New York,NY,10018,40.75673,-73.99261,3.5,359.2,252.16
125729,Empire Hotel,44 W 63rd St,New York,NY,10023,40.77158,-73.9826,4,230.64,229.64
163794,The Iroquois New York,49 West 44th Street,New York,NY,10036,40.7557,-73.98211,4,649.0596,399.0207
124901,The Lucerne Hotel,201 W 79th St,New York,NY,10024,40.7833,-73.97866,4,349.36,249.16
414769,Hyatt Place New York Midtown South,52 West 36th Street,New York,NY,10018,40.75058,-73.98567,3.5,320.16,319.16
117801,The Mansfield Hotel,12 W 44th St,New York,NY,10036,40.75518,-73.981,4,325,324
115902,New York Marriott Marquis,1535 Broadway,New York,NY,10036,40.75823,-73.98546,4.5,640.41,310.41
150310,NYLO New York City,2178 Broadway at W 77th St,New York,NY,10024,40.78225,-73.98025,4,158.934,108.9535
438712,Residence Inn New York Manhattan/Central Park,1717 Broadway,New York,NY,10019,40.76427,-73.98245,3.5,444.01,339.01
262491,Hampton Inn Manhattan Soho,54 Watts St,New York,NY,10013,40.72366,-74.00533,3,419.05,134.13
339013,Kimpton Hotel Eventi,851 Avenue of the Americas,New York,NY,10001,40.74719,-73.9897,5,699.17,499.17
121657,Travel Inn Hotel,515 W 42nd St,New York,NY,10036,40.75993,-73.99612,2.5,161.4,160.4
324226,Andaz Wall Street - a concept by Hyatt,75 Wall St,New York,NY,10005,40.70503,-74.00762,4.5,292.1304,242.1499
203969,The Premier New York Times Square,133 W 44th St,New York,NY,10036,40.75671,-73.98448,4.5,329.24,215.19
344720,The Nolitan,30 Kenmare St,New York,NY,10012,40.72072,-73.99526,3.5,215.49,200.49
198937,The Kimberly Hotel & Suites,145 E 50th St,New York,NY,10022,40.75614,-73.97151,4,1650.2533,188.286
114218,Park Lane Hotel,36 Central Park S,New York,NY,10019,40.76522,-73.97516,4,324.11,159.06
348293,NoMo SoHo,9 Crosby Street,New York,NY,10013,40.71992,-74.0003,4.5,945.19,375.18
340156,InterContinental - New York Times Square,300 W 44th St,New York,NY,10036,40.75874,-73.98932,4.5,789.17,369.15
202307,"The Renwick Hotel New York City, Curio Collection by Hilton",118 E 40th St,New York,NY,10016,40.75036,-73.97747,4,409.47,199.47
163790,Hampton Inn Times Square North,851 8th Ave,New York,NY,10019,40.76323,-73.98545,3,439.04,158.86
275398,Four Points by Sheraton Manhattan SoHo Village,66 Charlton St,New York,NY,10013,40.72718,-74.00601,3.5,460.74,310.71
432739,Courtyard New York Manhattan/Times Square West,307 W 37th St,New York,NY,10018,40.75435,-73.99268,3.5,399.06,259.04
126896,The Tuscany - A St Giles Signature Hotel,120 E 39th Street,New York,NY,10016,40.74981,-73.97808,4,374.14,274
332763,World Center Hotel,144 Washington St,New York,NY,10006,40.70947,-74.01394,4,409.23,219.19
126913,Wyndham New Yorker,481 Eighth Ave.,New York,NY,10001,40.75253,-73.99322,4,319.07,139.03
126106,The Kitano New York,66 Park Ave,New York,NY,10016,40.74962,-73.97962,4.5,539.0279,269.014
109362,Omni Berkshire Place,21 E 52nd Street,New York,NY,10022,40.75927,-73.97502,4.5,1000.21,1000
134388,Row NYC,700 8th Avenue,New York,NY,10036,40.75905,-73.98844,4,299.04,159.021
6295,The Manhattan at Times Square Hotel,790 7th Ave,New York,NY,10019,40.76205,-73.98259,4,260.15,180.13
234777,Residence Inn by Marriott New York Manhattan/Times Square,1033 Avenue Of The Americas,New York,NY,10018,40.75273,-73.98566,3.5,649.27,273.14
112522,Wellington Hotel,871 Seventh Ave,New York,NY,10019,40.76446,-73.98082,3,411.021,179.0094
163820,Hotel Sofitel New York,45 W 44th St,New York,NY,10036,40.75561,-73.9819,4.5,1036.1801,223.2
249659,Hilton Garden Inn Tribeca,39 Avenue of the Americas,New York,NY,10013,40.72108,-74.00534,3.5,369.02,211.66
336187,Hilton New York Fashion District,152 W 26th Street,New York,NY,10001,40.74572,-73.99364,4,189.79,129.79
237052,The Marmara Manhattan,301 E 94th St,New York,NY,10128,40.78285,-73.94776,3.5,403.9642,285.1102
163728,Ameritania at Times Square,230 W 54th Street,New York,NY,10019,40.76415,-73.9828,3.5,419.0622,289.0416
219433,Stewart Hotel,371 7th Ave,New York,NY,10001,40.74892,-73.99218,4,334,249
148866,Crowne Plaza Times Square Manhattan,1605 Broadway At 49th St,New York,NY,10019,40.76025,-73.98478,4,459.16,243.12
367406,The Gotham Hotel,16 E 46th St,New York,NY,10017,40.75566,-73.97814,4.5,679,221
390179,TRYP By Wyndham Times Square South,345 W 35th Street,New York,NY,10001,40.75359,-73.99473,4.5,399.21,269
114036,Novotel New York - Times Square,226 W 52nd St,New York,NY,10019,40.76288,-73.98363,4,218.9156,158.934
163758,Amsterdam Court Hotel,226 W 50th St,New York,NY,10019,40.76184,-73.98505,3,300,299
153584,La Quinta Inn & Suites New York City Central Park,31 W 71st St,New York,NY,10023,40.7761,-73.97777,2.5,199.24,169.2
312110,"Marriott Vacation Club Pulse, New York City",33 West 37 Street,New York,NY,10018,40.75111,-73.985,4,454.05,175.03
349751,Andaz 5th Avenue - a concept by Hyatt,485 5th Ave,New York,NY,10017,40.75287,-73.98134,4.5,845.06,345
292875,Night Hotel Times Square,157 West 47th Street,New York,NY,10036,40.75898,-73.98405,4,379,239
253420,Hilton Garden Inn New York/Manhattan-Chelsea,121 W 28th St,New York,NY,10001,40.74648,-73.99158,3.5,224.0587,143.7464
430306,Best Western Premier Herald Square,50 W 36th St,New York,NY,10018,40.75053,-73.98556,3,440.0534,225.2745
263234,Holiday Inn Express - New York City Chelsea,232 W 29th St,New York,NY,10001,40.74853,-73.9945,3,214.39,176.39
163796,DoubleTree by Hilton Metropolitan - New York City,569 Lexington Ave,New York,NY,10022,40.75695,-73.97208,4,199.32,159.32
200316,Gardens NYC-an Affinia hotel,215 E 64th St,New York,NY,10065,40.76424,-73.96326,3.5,369.44,232.44
197539,The Wall Street Inn,9 S William St,New York,NY,10004,40.70466,-74.01046,3,245.0515,164.9857
128996,Millenium Hilton,55 Church Street,New York,NY,10007,40.71124,-74.01068,4,199.45,169.45
200065,Le Parker Meridien New York,119 W. 56th Street,New York,NY,10019,40.76409,-73.97873,4.5,479.42,239.42
311346,Holiday Inn Express New York City- Wall Street,126 Water St,New York,NY,10005,40.70544,-74.00712,3,140.0073,139.0073
407095,Wyndham Garden Chinatown,93 Bowery,New York,NY,10002,40.71695,-73.99562,4,309.48,242.48
142043,Hotel Pennsylvania,401 7th Ave,New York,NY,10001,40.74996,-73.99137,2.5,469,169
109227,The Evelyn Hotel,7 E 27th St,New York,NY,10016,40.74381,-73.98713,3.5,329.0455,169.0299
150387,Millennium Broadway New York Times Square,145 W 44th St,New York,NY,10036,40.75689,-73.9849,4,339.0544,289.0416
272526,Hampton Inn New York - 35th Street - Empire State Building,59 W 35th St,New York,NY,10001,40.75013,-73.98651,3,339.33,299.33
353129,The James New York,27 Grand St,New York,NY,10013,40.72284,-74.00471,4.5,595,295
352529,Cassa Hotel 45th Street,70 West 45th St.,New York,NY,10036,40.75647,-73.98212,4,891.6393,609.0939
430580,"Club Quarters Hotel, Grand Central",128 East 45th Street,New York,NY,10017,40.75325,-73.97441,4,289.41,169.41
361485,The Jewel facing Rockefeller Center,11 West 51st Street,New York,NY,10017,40.75958,-73.9778,4,439,219
117112,Hotel Edison,228 W 47th St,New York,NY,10036,40.7598,-73.98603,3,909,379
122563,The Lombardy,111 E 56th St,New York,NY,10022,40.76066,-73.97058,4,409.33,309.33
316461,Dream Midtown,210 West 55th Street,New York,NY,10019,40.76458,-73.98183,4,669.27,319
258349,Comfort Inn Times Square South Area,305 West 39th Street,New York,NY,10018,40.75555,-73.99174,3,269.44,249.44
355972,Courtyard by Marriott New York Manhattan/SoHo,181 Varick St,New York,NY,10014,40.72752,-74.0055,3.5,529.02,239.01
125509,Loews Regency New York Hotel,540 Park Avenue,New York,NY,10065,40.76446,-73.96885,5,999.4,479.4
266211,Holiday Inn Manhattan 6th Ave - Chelsea,125 W 26th St,New York,NY,10001,40.74522,-73.99244,3.5,209.35,162.35
263989,Holiday Inn Express New York City Fifth Avenue,15 West 45th Street,New York,NY,10036,40.75577,-73.98031,3,419.04,189.02
422002,Holiday Inn Express Manhattan Times Square South,60 West 36th Street,New York,NY,10018,40.75108,-73.98685,3,369,135.16
106930,Hilton Garden Inn Times Square,790 Eighth Ave.,New York,NY,10019,40.76112,-73.98695,3.5,414.0578,293.5276
105816,Sheraton New York Times Square Hotel,811 7th Ave,New York,NY,10019,40.76264,-73.98213,4,663.32,464.32
114221,Residence Inn by Marriott New York Manhattan/Midtown East,148 E 48th St,New York,NY,10017,40.75512,-73.97292,3.5,484.09,195.06
109318,Lotte New York Palace,455 Madison Ave,New York,NY,10022,40.75823,-73.97453,4.5,1195.41,349.41
241086,"Club Quarters Hotel, opposite Rockefeller Center",25 West 51st St Entrance A,New York,NY,10019,40.75982,-73.97835,4,329.19,279
383834,Dream Downtown,355 W 16th St,New York,NY,10011,40.74195,-74.00369,4.5,5000.3501,299.36
106069,Grand Hyatt New York,109 East 42nd Street,New York,NY,10017,40.75167,-73.97659,4,1129,375.66
